var subway = {
"type": "FeatureCollection",
"name": "substat",
"crs": { "type": "name", "properties": { "name": "urn:ogc:def:crs:OGC:1.3:CRS84" } },
"features": [
{ "type": "Feature", "properties": { "OBJECTID": 1.0, "ID": 376.0, "NAME": "Cortlandt St", "ALT_NAME": null, "CROSS_ST": "Church St", "LONG_NAME": "Cortlandt St (R,W) Manhattan", "LABEL": "Cortlandt St (R,W)", "BOROUGH": "Manhattan", "NGHBHD": null, "ROUTES": "R,W", "TRANSFERS": "R,W", "COLOR": "YELLOW", "EXPRESS": null, "CLOSED": null }, "geometry": { "type": "Point", "coordinates": [ -74.011215462040582, 40.71038425652722 ] } },
{ "type": "Feature", "properties": { "OBJECTID": 2.0, "ID": 2.0, "NAME": "Rector St", "ALT_NAME": null, "CROSS_ST": null, "LONG_NAME": "Rector St (1) Manhattan", "LABEL": "Rector St (1)", "BOROUGH": "Manhattan", "NGHBHD": null, "ROUTES": "1", "TRANSFERS": "1", "COLOR": "RED", "EXPRESS": null, "CLOSED": null }, "geometry": { "type": "Point", "coordinates": [ -74.013587917844745, 40.707949835756374 ] } },
{ "type": "Feature", "properties": { "OBJECTID": 3.0, "ID": 1.0, "NAME": "South Ferry", "ALT_NAME": null, "CROSS_ST": null, "LONG_NAME": "South Ferry (1) Manhattan", "LABEL": "South Ferry (1)", "BOROUGH": "Manhattan", "NGHBHD": null, "ROUTES": "1", "TRANSFERS": "1", "COLOR": "RED", "EXPRESS": null, "CLOSED": null }, "geometry": { "type": "Point", "coordinates": [ -74.013926000430118, 40.701324998900347 ] } },
{ "type": "Feature", "properties": { "OBJECTID": 4.0, "ID": 125.0, "NAME": "138th St", "ALT_NAME": "Grand Concourse", "CROSS_ST": "Grand Concourse", "LONG_NAME": "138th St / Grand Concourse (4,5) Bronx", "LABEL": "138th St / Grand Concourse (4,5)", "BOROUGH": "Bronx", "NGHBHD": null, "ROUTES": "4,5", "TRANSFERS": "4,5", "COLOR": "GREEN", "EXPRESS": null, "CLOSED": null }, "geometry": { "type": "Point", "coordinates": [ -73.92991766980596, 40.813076813823827 ] } },
{ "type": "Feature", "properties": { "OBJECTID": 5.0, "ID": 126.0, "NAME": "149th St", "ALT_NAME": "Grand Concourse", "CROSS_ST": "Grand Concourse", "LONG_NAME": "149th St / Grand Concourse (4) Bronx", "LABEL": "149th St / Grand Concourse (4)", "BOROUGH": "Bronx", "NGHBHD": null, "ROUTES": "4", "TRANSFERS": "2,4,5", "COLOR": "GREEN", "EXPRESS": "express", "CLOSED": null }, "geometry": { "type": "Point", "coordinates": [ -73.927406498236238, 40.818347666443096 ] } },
{ "type": "Feature", "properties": { "OBJECTID": 6.0, "ID": 45.0, "NAME": "149th St", "ALT_NAME": "Grand Concourse", "CROSS_ST": "Grand Concourse", "LONG_NAME": "149th St / Grand Concourse (2,5) Bronx", "LABEL": "149th St / Grand Concourse (2,5)", "BOROUGH": "Bronx", "NGHBHD": null, "ROUTES": "2,5", "TRANSFERS": "2,4,5", "COLOR": "RED-GREEN", "EXPRESS": "express", "CLOSED": null }, "geometry": { "type": "Point", "coordinates": [ -73.927270930897464, 40.818553397223653 ] } },
{ "type": "Feature", "properties": { "OBJECTID": 7.0, "ID": 127.0, "NAME": "161st St", "ALT_NAME": "Yankee Stadium", "CROSS_ST": "River Ave", "LONG_NAME": "161st St / Yankee Stadium (B,D,4) Bronx", "LABEL": "161st St / Yankee Stadium (B,D,4)", "BOROUGH": "Bronx", "NGHBHD": null, "ROUTES": "B,D,4", "TRANSFERS": "B,D,4", "COLOR": "GREEN-ORANGE", "EXPRESS": null, "CLOSED": null }, "geometry": { "type": "Point", "coordinates": [ -73.925847068195807, 40.827963431075652 ] } },
{ "type": "Feature", "properties": { "OBJECTID": 8.0, "ID": 208.0, "NAME": "167th St", "ALT_NAME": null, "CROSS_ST": "Grand Concourse", "LONG_NAME": "167th St (B,D) Bronx", "LABEL": "167th St (B,D)", "BOROUGH": "Bronx", "NGHBHD": null, "ROUTES": "B,D", "TRANSFERS": "B,D", "COLOR": "ORANGE", "EXPRESS": null, "CLOSED": null }, "geometry": { "type": "Point", "coordinates": [ -73.917680239558521, 40.834513463088307 ] } },
{ "type": "Feature", "properties": { "OBJECTID": 9.0, "ID": 128.0, "NAME": "167th St", "ALT_NAME": null, "CROSS_ST": "River Ave", "LONG_NAME": "167th St (4) Bronx", "LABEL": "167th St (4)", "BOROUGH": "Bronx", "NGHBHD": null, "ROUTES": "4", "TRANSFERS": "4", "COLOR": "GREEN", "EXPRESS": null, "CLOSED": null }, "geometry": { "type": "Point", "coordinates": [ -73.92129560179346, 40.835691067366746 ] } },
{ "type": "Feature", "properties": { "OBJECTID": 10.0, "ID": 209.0, "NAME": "170th St", "ALT_NAME": null, "CROSS_ST": "Grand Concourse", "LONG_NAME": "170th St (B,D) Bronx", "LABEL": "170th St (B,D)", "BOROUGH": "Bronx", "NGHBHD": null, "ROUTES": "B,D", "TRANSFERS": "B,D", "COLOR": "ORANGE", "EXPRESS": null, "CLOSED": null }, "geometry": { "type": "Point", "coordinates": [ -73.913686401306663, 40.838840361634851 ] } },
{ "type": "Feature", "properties": { "OBJECTID": 11.0, "ID": 129.0, "NAME": "170th St", "ALT_NAME": null, "CROSS_ST": "Jerome Ave", "LONG_NAME": "170th St (4) Bronx", "LABEL": "170th St (4)", "BOROUGH": "Bronx", "NGHBHD": null, "ROUTES": "4", "TRANSFERS": "4", "COLOR": "GREEN", "EXPRESS": null, "CLOSED": null }, "geometry": { "type": "Point", "coordinates": [ -73.917705139342559, 40.840202705097234 ] } },
{ "type": "Feature", "properties": { "OBJECTID": 12.0, "ID": 52.0, "NAME": "174th St", "ALT_NAME": null, "CROSS_ST": "Southern Blvd", "LONG_NAME": "174th St (2,5) Bronx", "LABEL": "174th St (2,5)", "BOROUGH": "Bronx", "NGHBHD": null, "ROUTES": "2,5", "TRANSFERS": "2,5", "COLOR": "RED-GREEN", "EXPRESS": null, "CLOSED": null }, "geometry": { "type": "Point", "coordinates": [ -73.887682000015786, 40.837349000126935 ] } },
{ "type": "Feature", "properties": { "OBJECTID": 13.0, "ID": 210.0, "NAME": "174th St", "ALT_NAME": "175th St", "CROSS_ST": "Grand Concourse", "LONG_NAME": "174th St / 175th St (B,D) Bronx", "LABEL": "174th St / 175th St (B,D)", "BOROUGH": "Bronx", "NGHBHD": null, "ROUTES": "B,D", "TRANSFERS": "B,D", "COLOR": "ORANGE", "EXPRESS": null, "CLOSED": null }, "geometry": { "type": "Point", "coordinates": [ -73.91017400076467, 40.845914000534329 ] } },
{ "type": "Feature", "properties": { "OBJECTID": 14.0, "ID": 131.0, "NAME": "176th St", "ALT_NAME": null, "CROSS_ST": "Jerome Ave", "LONG_NAME": "176th St (4) Bronx", "LABEL": "176th St (4)", "BOROUGH": "Bronx", "NGHBHD": null, "ROUTES": "4", "TRANSFERS": "4", "COLOR": "GREEN", "EXPRESS": null, "CLOSED": null }, "geometry": { "type": "Point", "coordinates": [ -73.911694269802979, 40.848645951244691 ] } },
{ "type": "Feature", "properties": { "OBJECTID": 15.0, "ID": 212.0, "NAME": "182nd St", "ALT_NAME": "183rd St", "CROSS_ST": "Grand Concourse", "LONG_NAME": "182nd St / 183rd St (B,D) Bronx", "LABEL": "182nd St / 183rd St (B,D)", "BOROUGH": "Bronx", "NGHBHD": null, "ROUTES": "B,D", "TRANSFERS": "B,D", "COLOR": "ORANGE", "EXPRESS": null, "CLOSED": null }, "geometry": { "type": "Point", "coordinates": [ -73.90027099951152, 40.856815999969271 ] } },
{ "type": "Feature", "properties": { "OBJECTID": 16.0, "ID": 133.0, "NAME": "183rd St", "ALT_NAME": null, "CROSS_ST": "Jerome Ave", "LONG_NAME": "183rd St (4) Bronx", "LABEL": "183rd St (4)", "BOROUGH": "Bronx", "NGHBHD": null, "ROUTES": "4", "TRANSFERS": "4", "COLOR": "GREEN", "EXPRESS": null, "CLOSED": null }, "geometry": { "type": "Point", "coordinates": [ -73.903961997577085, 40.85836699944722 ] } },
{ "type": "Feature", "properties": { "OBJECTID": 17.0, "ID": 216.0, "NAME": "205th St", "ALT_NAME": "Norwood", "CROSS_ST": "Bainbridge Ave", "LONG_NAME": "205th St / Norwood (D) Bronx", "LABEL": "205th St / Norwood (D)", "BOROUGH": "Bronx", "NGHBHD": null, "ROUTES": "D", "TRANSFERS": "D", "COLOR": "ORANGE", "EXPRESS": null, "CLOSED": null }, "geometry": { "type": "Point", "coordinates": [ -73.879427000270937, 40.874978999951317 ] } },
{ "type": "Feature", "properties": { "OBJECTID": 18.0, "ID": 60.0, "NAME": "219th St", "ALT_NAME": null, "CROSS_ST": "White Plains Rd", "LONG_NAME": "219th St (2,5) Bronx", "LABEL": "219th St (2,5)", "BOROUGH": "Bronx", "NGHBHD": null, "ROUTES": "2,5", "TRANSFERS": "2,5", "COLOR": "RED-GREEN", "EXPRESS": null, "CLOSED": null }, "geometry": { "type": "Point", "coordinates": [ -73.862799662008797, 40.883579211213714 ] } },
{ "type": "Feature", "properties": { "OBJECTID": 19.0, "ID": 61.0, "NAME": "225th St", "ALT_NAME": null, "CROSS_ST": "White Plains Rd", "LONG_NAME": "225th St (2,5) Bronx", "LABEL": "225th St (2,5)", "BOROUGH": "Bronx", "NGHBHD": null, "ROUTES": "2,5", "TRANSFERS": "2,5", "COLOR": "RED-GREEN", "EXPRESS": null, "CLOSED": null }, "geometry": { "type": "Point", "coordinates": [ -73.860424899330297, 40.887810096281733 ] } },
{ "type": "Feature", "properties": { "OBJECTID": 20.0, "ID": 36.0, "NAME": "231st St", "ALT_NAME": null, "CROSS_ST": "Broadway", "LONG_NAME": "231st St (1) Bronx", "LABEL": "231st St (1)", "BOROUGH": "Bronx", "NGHBHD": null, "ROUTES": "1", "TRANSFERS": "1", "COLOR": "RED", "EXPRESS": null, "CLOSED": null }, "geometry": { "type": "Point", "coordinates": [ -73.904784482894215, 40.87891012034202 ] } },
{ "type": "Feature", "properties": { "OBJECTID": 21.0, "ID": 62.0, "NAME": "233rd St", "ALT_NAME": null, "CROSS_ST": "White Plains Rd", "LONG_NAME": "233rd St (2,5) Bronx", "LABEL": "233rd St (2,5)", "BOROUGH": "Bronx", "NGHBHD": null, "ROUTES": "2,5", "TRANSFERS": "2,5", "COLOR": "RED-GREEN", "EXPRESS": null, "CLOSED": null }, "geometry": { "type": "Point", "coordinates": [ -73.857349029090571, 40.893393325560936 ] } },
{ "type": "Feature", "properties": { "OBJECTID": 22.0, "ID": 37.0, "NAME": "238th St", "ALT_NAME": null, "CROSS_ST": "Broadway", "LONG_NAME": "238th St (1) Bronx", "LABEL": "238th St (1)", "BOROUGH": "Bronx", "NGHBHD": null, "ROUTES": "1", "TRANSFERS": "1", "COLOR": "RED", "EXPRESS": null, "CLOSED": null }, "geometry": { "type": "Point", "coordinates": [ -73.90064099756674, 40.885076999524337 ] } },
{ "type": "Feature", "properties": { "OBJECTID": 23.0, "ID": 64.0, "NAME": "241st St", "ALT_NAME": "Wakefield", "CROSS_ST": "White Plains Rd", "LONG_NAME": "241st St / Wakefield (2) Bronx", "LABEL": "241st St / Wakefield (2)", "BOROUGH": "Bronx", "NGHBHD": null, "ROUTES": "2", "TRANSFERS": "2", "COLOR": "RED", "EXPRESS": null, "CLOSED": null }, "geometry": { "type": "Point", "coordinates": [ -73.850374626958185, 40.903427723164185 ] } },
{ "type": "Feature", "properties": { "OBJECTID": 24.0, "ID": 38.0, "NAME": "242nd St", "ALT_NAME": "Van Cortlandt Park", "CROSS_ST": "Broadway", "LONG_NAME": "242nd St (1) Bronx", "LABEL": "242nd St (1)", "BOROUGH": "Bronx", "NGHBHD": null, "ROUTES": "1", "TRANSFERS": "1", "COLOR": "RED", "EXPRESS": null, "CLOSED": null }, "geometry": { "type": "Point", "coordinates": [ -73.898506258913471, 40.88942403630643 ] } },
{ "type": "Feature", "properties": { "OBJECTID": 25.0, "ID": 296.0, "NAME": "W 4th St", "ALT_NAME": null, "CROSS_ST": "6th Ave", "LONG_NAME": "W 4th St (B,D,F,V) Manhattan", "LABEL": "W 4th St (B,D,F,V)", "BOROUGH": "Manhattan", "NGHBHD": null, "ROUTES": "B,D,F,V", "TRANSFERS": "A,B,C,D,E,F,V", "COLOR": "ORANGE", "EXPRESS": "express", "CLOSED": null }, "geometry": { "type": "Point", "coordinates": [ -74.000902000932044, 40.731682000085385 ] } },
{ "type": "Feature", "properties": { "OBJECTID": 26.0, "ID": 139.0, "NAME": "3rd Ave", "ALT_NAME": "138th St", "CROSS_ST": "138th St", "LONG_NAME": "3rd Ave / 138th St (6) Bronx", "LABEL": "3rd Ave / 138th St (6)", "BOROUGH": "Bronx", "NGHBHD": null, "ROUTES": "6", "TRANSFERS": "6", "COLOR": "GREEN", "EXPRESS": "express", "CLOSED": null }, "geometry": { "type": "Point", "coordinates": [ -73.927193580155446, 40.810994530157821 ] } },
{ "type": "Feature", "properties": { "OBJECTID": 27.0, "ID": 46.0, "NAME": "3rd Ave", "ALT_NAME": "149th St", "CROSS_ST": "149th St", "LONG_NAME": "3rd Ave / 149th St (2,5) Bronx", "LABEL": "3rd Ave / 149th St (2,5)", "BOROUGH": "Bronx", "NGHBHD": null, "ROUTES": "2,5", "TRANSFERS": "2,5", "COLOR": "RED-GREEN", "EXPRESS": "express", "CLOSED": null }, "geometry": { "type": "Point", "coordinates": [ -73.917642125900187, 40.816061202380112 ] } },
{ "type": "Feature", "properties": { "OBJECTID": 28.0, "ID": 57.0, "NAME": "Allerton Ave", "ALT_NAME": null, "CROSS_ST": "White Plains Rd", "LONG_NAME": "Allerton Ave (2,5) Bronx", "LABEL": "Allerton Ave (2,5)", "BOROUGH": "Bronx", "NGHBHD": null, "ROUTES": "2,5", "TRANSFERS": "2,5", "COLOR": "RED-GREEN", "EXPRESS": null, "CLOSED": null }, "geometry": { "type": "Point", "coordinates": [ -73.86731971822978, 40.865433929148374 ] } },
{ "type": "Feature", "properties": { "OBJECTID": 29.0, "ID": 68.0, "NAME": "Baychester Ave", "ALT_NAME": null, "CROSS_ST": "Tillotson Ave", "LONG_NAME": "Baychester Ave (5) Bronx", "LABEL": "Baychester Ave (5)", "BOROUGH": "Bronx", "NGHBHD": null, "ROUTES": "5", "TRANSFERS": "5", "COLOR": "GREEN", "EXPRESS": null, "CLOSED": null }, "geometry": { "type": "Point", "coordinates": [ -73.838591000123301, 40.878662999566217 ] } },
{ "type": "Feature", "properties": { "OBJECTID": 30.0, "ID": 215.0, "NAME": "Bedford Park Blvd", "ALT_NAME": null, "CROSS_ST": "Grand Concourse", "LONG_NAME": "Bedford Park Blvd (B,D) Bronx", "LABEL": "Bedford Park Blvd (B,D)", "BOROUGH": "Bronx", "NGHBHD": null, "ROUTES": "B,D", "TRANSFERS": "B,D", "COLOR": "ORANGE", "EXPRESS": null, "CLOSED": null }, "geometry": { "type": "Point", "coordinates": [ -73.887873000454221, 40.87210900008013 ] } },
{ "type": "Feature", "properties": { "OBJECTID": 31.0, "ID": 136.0, "NAME": "Bedford Park Blvd", "ALT_NAME": "Lehman College", "CROSS_ST": "Jerome Ave", "LONG_NAME": "Bedford Park Blvd / Lehman College (4) Bronx", "LABEL": "Bedford Park Blvd / Lehman College (4)", "BOROUGH": "Bronx", "NGHBHD": null, "ROUTES": "4", "TRANSFERS": "4", "COLOR": "GREEN", "EXPRESS": null, "CLOSED": null }, "geometry": { "type": "Point", "coordinates": [ -73.889781432556987, 40.873596319304511 ] } },
{ "type": "Feature", "properties": { "OBJECTID": 32.0, "ID": 55.0, "NAME": "Bronx Park East", "ALT_NAME": null, "CROSS_ST": "White Plains Rd", "LONG_NAME": "Bronx Park East (2,5) Bronx", "LABEL": "Bronx Park East (2,5)", "BOROUGH": "Bronx", "NGHBHD": null, "ROUTES": "2,5", "TRANSFERS": "2,5", "COLOR": "RED-GREEN", "EXPRESS": null, "CLOSED": null }, "geometry": { "type": "Point", "coordinates": [ -73.868356496955613, 40.848991020139081 ] } },
{ "type": "Feature", "properties": { "OBJECTID": 33.0, "ID": 140.0, "NAME": "Brook Ave", "ALT_NAME": null, "CROSS_ST": "E 138th St", "LONG_NAME": "Brook Ave (6) Bronx", "LABEL": "Brook Ave (6)", "BOROUGH": "Bronx", "NGHBHD": null, "ROUTES": "6", "TRANSFERS": "6", "COLOR": "GREEN", "EXPRESS": null, "CLOSED": null }, "geometry": { "type": "Point", "coordinates": [ -73.919237000253858, 40.807568000399613 ] } },
{ "type": "Feature", "properties": { "OBJECTID": 34.0, "ID": 155.0, "NAME": "Buhre Ave", "ALT_NAME": null, "CROSS_ST": "Westchester Ave", "LONG_NAME": "Buhre Ave (6) Bronx", "LABEL": "Buhre Ave (6)", "BOROUGH": "Bronx", "NGHBHD": null, "ROUTES": "6", "TRANSFERS": "6", "COLOR": "GREEN", "EXPRESS": null, "CLOSED": null }, "geometry": { "type": "Point", "coordinates": [ -73.832259687082001, 40.847025538598942 ] } },
{ "type": "Feature", "properties": { "OBJECTID": 35.0, "ID": 58.0, "NAME": "Burke Ave", "ALT_NAME": null, "CROSS_ST": "White Plains Rd", "LONG_NAME": "Burke Ave (2,5) Bronx", "LABEL": "Burke Ave (2,5)", "BOROUGH": "Bronx", "NGHBHD": null, "ROUTES": "2,5", "TRANSFERS": "2,5", "COLOR": "RED-GREEN", "EXPRESS": null, "CLOSED": null }, "geometry": { "type": "Point", "coordinates": [ -73.867173001385382, 40.871435006291925 ] } },
{ "type": "Feature", "properties": { "OBJECTID": 36.0, "ID": 132.0, "NAME": "Burnside Ave", "ALT_NAME": null, "CROSS_ST": "Jerome Ave", "LONG_NAME": "Burnside Ave (4) Bronx", "LABEL": "Burnside Ave (4)", "BOROUGH": "Bronx", "NGHBHD": null, "ROUTES": "4", "TRANSFERS": "4", "COLOR": "GREEN", "EXPRESS": null, "CLOSED": null }, "geometry": { "type": "Point", "coordinates": [ -73.907372150976883, 40.853797959247686 ] } },
{ "type": "Feature", "properties": { "OBJECTID": 37.0, "ID": 151.0, "NAME": "Castle Hill Ave", "ALT_NAME": null, "CROSS_ST": "Westchester Ave", "LONG_NAME": "Castle Hill Ave (6) Bronx", "LABEL": "Castle Hill Ave (6)", "BOROUGH": "Bronx", "NGHBHD": null, "ROUTES": "6", "TRANSFERS": "6", "COLOR": "GREEN", "EXPRESS": null, "CLOSED": null }, "geometry": { "type": "Point", "coordinates": [ -73.851641997550217, 40.834191000471542 ] } },
{ "type": "Feature", "properties": { "OBJECTID": 38.0, "ID": 141.0, "NAME": "Cypress Ave", "ALT_NAME": null, "CROSS_ST": "E 138th St", "LONG_NAME": "Cypress Ave (6) Bronx", "LABEL": "Cypress Ave (6)", "BOROUGH": "Bronx", "NGHBHD": null, "ROUTES": "6", "TRANSFERS": "6", "COLOR": "GREEN", "EXPRESS": null, "CLOSED": null }, "geometry": { "type": "Point", "coordinates": [ -73.914465043472461, 40.805548220313462 ] } },
{ "type": "Feature", "properties": { "OBJECTID": 39.0, "ID": 69.0, "NAME": "Dyre Ave", "ALT_NAME": "Eastchester", "CROSS_ST": "233rd St", "LONG_NAME": "Dyre Ave / Eastchester (5) Bronx", "LABEL": "Dyre Ave / Eastchester (5)", "BOROUGH": "Bronx", "NGHBHD": null, "ROUTES": "5", "TRANSFERS": "5", "COLOR": "GREEN", "EXPRESS": null, "CLOSED": null }, "geometry": { "type": "Point", "coordinates": [ -73.830596154964212, 40.889097210706474 ] } },
{ "type": "Feature", "properties": { "OBJECTID": 40.0, "ID": 142.0, "NAME": "E 143rd St", "ALT_NAME": "St Mary's St", "CROSS_ST": "Southern Blvd", "LONG_NAME": "E 143rd St / St Mary's St (6) Bronx", "LABEL": "E 143rd St / St Mary's St (6)", "BOROUGH": "Bronx", "NGHBHD": null, "ROUTES": "6", "TRANSFERS": "6", "COLOR": "GREEN", "EXPRESS": null, "CLOSED": null }, "geometry": { "type": "Point", "coordinates": [ -73.907837998944146, 40.808193000209563 ] } },
{ "type": "Feature", "properties": { "OBJECTID": 41.0, "ID": 143.0, "NAME": "E 149th St", "ALT_NAME": null, "CROSS_ST": "Southern Blvd", "LONG_NAME": "E 149th St (6) Bronx", "LABEL": "E 149th St (6)", "BOROUGH": "Bronx", "NGHBHD": null, "ROUTES": "6", "TRANSFERS": "6", "COLOR": "GREEN", "EXPRESS": null, "CLOSED": null }, "geometry": { "type": "Point", "coordinates": [ -73.904147000066487, 40.81211500112363 ] } },
{ "type": "Feature", "properties": { "OBJECTID": 42.0, "ID": 150.0, "NAME": "E 177th St", "ALT_NAME": "Parkchester", "CROSS_ST": "Westchester Ave", "LONG_NAME": "E 177th St / Parkchester (6) Bronx", "LABEL": "E 177th St / Parkchester (6)", "BOROUGH": "Bronx", "NGHBHD": null, "ROUTES": "6", "TRANSFERS": "6", "COLOR": "GREEN", "EXPRESS": "express", "CLOSED": null }, "geometry": { "type": "Point", "coordinates": [ -73.862713170386826, 40.8329272300169 ] } },
{ "type": "Feature", "properties": { "OBJECTID": 43.0, "ID": 54.0, "NAME": "E 180th St", "ALT_NAME": null, "CROSS_ST": "Morris Park Ave", "LONG_NAME": "E 180th St (2,5) Bronx", "LABEL": "E 180th St (2,5)", "BOROUGH": "Bronx", "NGHBHD": null, "ROUTES": "2,5", "TRANSFERS": "2,5", "COLOR": "RED-GREEN", "EXPRESS": "express", "CLOSED": null }, "geometry": { "type": "Point", "coordinates": [ -73.87415388795587, 40.841371651277363 ] } },
{ "type": "Feature", "properties": { "OBJECTID": 44.0, "ID": 53.0, "NAME": "E Tremont Ave", "ALT_NAME": "West Farms Sq", "CROSS_ST": "Boston Rd", "LONG_NAME": "E Tremont Ave / West Farms Sq (2,5) Bronx", "LABEL": "E Tremont Ave / West Farms Sq (2,5)", "BOROUGH": "Bronx", "NGHBHD": null, "ROUTES": "2,5", "TRANSFERS": "2,5", "COLOR": "RED-GREEN", "EXPRESS": null, "CLOSED": null }, "geometry": { "type": "Point", "coordinates": [ -73.880426957116896, 40.840090232798929 ] } },
{ "type": "Feature", "properties": { "OBJECTID": 45.0, "ID": 147.0, "NAME": "Elder Ave", "ALT_NAME": null, "CROSS_ST": "Westchester Ave", "LONG_NAME": "Elder Ave (6) Bronx", "LABEL": "Elder Ave (6)", "BOROUGH": "Bronx", "NGHBHD": null, "ROUTES": "6", "TRANSFERS": "6", "COLOR": "GREEN", "EXPRESS": null, "CLOSED": null }, "geometry": { "type": "Point", "coordinates": [ -73.879160001016572, 40.828582999906253 ] } },
{ "type": "Feature", "properties": { "OBJECTID": 46.0, "ID": 213.0, "NAME": "Fordham Rd", "ALT_NAME": null, "CROSS_ST": "Grand Concourse", "LONG_NAME": "Fordham Rd (B,D) Bronx", "LABEL": "Fordham Rd (B,D)", "BOROUGH": "Bronx", "NGHBHD": null, "ROUTES": "B,D", "TRANSFERS": "B,D", "COLOR": "ORANGE", "EXPRESS": "express", "CLOSED": null }, "geometry": { "type": "Point", "coordinates": [ -73.89710179791831, 40.862416002490789 ] } },
{ "type": "Feature", "properties": { "OBJECTID": 47.0, "ID": 134.0, "NAME": "Fordham Rd", "ALT_NAME": null, "CROSS_ST": "Jerome Ave", "LONG_NAME": "Fordham Rd (4) Bronx", "LABEL": "Fordham Rd (4)", "BOROUGH": "Bronx", "NGHBHD": null, "ROUTES": "4", "TRANSFERS": "4", "COLOR": "GREEN", "EXPRESS": null, "CLOSED": null }, "geometry": { "type": "Point", "coordinates": [ -73.901091000514384, 40.862732999976998 ] } },
{ "type": "Feature", "properties": { "OBJECTID": 48.0, "ID": 51.0, "NAME": "Freeman St", "ALT_NAME": null, "CROSS_ST": "Southern Blvd", "LONG_NAME": "Freeman St (2,5) Bronx", "LABEL": "Freeman St (2,5)", "BOROUGH": "Bronx", "NGHBHD": null, "ROUTES": "2,5", "TRANSFERS": "2,5", "COLOR": "RED-GREEN", "EXPRESS": null, "CLOSED": null }, "geometry": { "type": "Point", "coordinates": [ -73.891831914024706, 40.830169665006835 ] } },
{ "type": "Feature", "properties": { "OBJECTID": 49.0, "ID": 67.0, "NAME": "Gun Hill Rd", "ALT_NAME": null, "CROSS_ST": "Seymour Ave", "LONG_NAME": "Gun Hill Rd (5) Bronx", "LABEL": "Gun Hill Rd (5)", "BOROUGH": "Bronx", "NGHBHD": null, "ROUTES": "5", "TRANSFERS": "5", "COLOR": "GREEN", "EXPRESS": null, "CLOSED": null }, "geometry": { "type": "Point", "coordinates": [ -73.845803327826843, 40.870182093736702 ] } },
{ "type": "Feature", "properties": { "OBJECTID": 50.0, "ID": 59.0, "NAME": "Gun Hill Rd", "ALT_NAME": null, "CROSS_ST": "White Plains Rd", "LONG_NAME": "Gun Hill Rd (2,5) Bronx", "LABEL": "Gun Hill Rd (2,5)", "BOROUGH": "Bronx", "NGHBHD": null, "ROUTES": "2,5", "TRANSFERS": "2,5", "COLOR": "RED-GREEN", "EXPRESS": null, "CLOSED": null }, "geometry": { "type": "Point", "coordinates": [ -73.866518443997407, 40.877410804616957 ] } },
{ "type": "Feature", "properties": { "OBJECTID": 51.0, "ID": 145.0, "NAME": "Hunts Point Ave", "ALT_NAME": null, "CROSS_ST": "Southern Blvd", "LONG_NAME": "Hunts Point Ave (6) Bronx", "LABEL": "Hunts Point Ave (6)", "BOROUGH": "Bronx", "NGHBHD": null, "ROUTES": "6", "TRANSFERS": "6", "COLOR": "GREEN", "EXPRESS": "express", "CLOSED": null }, "geometry": { "type": "Point", "coordinates": [ -73.89164199915291, 40.82061400029361 ] } },
{ "type": "Feature", "properties": { "OBJECTID": 52.0, "ID": 49.0, "NAME": "Intervale Ave", "ALT_NAME": null, "CROSS_ST": "Westchester Ave", "LONG_NAME": "Intervale Ave (2,5) Bronx", "LABEL": "Intervale Ave (2,5)", "BOROUGH": "Bronx", "NGHBHD": null, "ROUTES": "2,5", "TRANSFERS": "2,5", "COLOR": "RED-GREEN", "EXPRESS": null, "CLOSED": null }, "geometry": { "type": "Point", "coordinates": [ -73.896892779672683, 40.82209557348169 ] } },
{ "type": "Feature", "properties": { "OBJECTID": 53.0, "ID": 47.0, "NAME": "Jackson Ave", "ALT_NAME": null, "CROSS_ST": "Westchester Ave", "LONG_NAME": "Jackson Ave (2,5) Bronx", "LABEL": "Jackson Ave (2,5)", "BOROUGH": "Bronx", "NGHBHD": null, "ROUTES": "2,5", "TRANSFERS": "2,5", "COLOR": "RED-GREEN", "EXPRESS": null, "CLOSED": null }, "geometry": { "type": "Point", "coordinates": [ -73.908252751633697, 40.816242012805056 ] } },
{ "type": "Feature", "properties": { "OBJECTID": 54.0, "ID": 214.0, "NAME": "Kingsbridge Rd", "ALT_NAME": null, "CROSS_ST": "Grand Concourse", "LONG_NAME": "Kingsbridge Rd (B,D) Bronx", "LABEL": "Kingsbridge Rd (B,D)", "BOROUGH": "Bronx", "NGHBHD": null, "ROUTES": "B,D", "TRANSFERS": "B,D", "COLOR": "ORANGE", "EXPRESS": null, "CLOSED": null }, "geometry": { "type": "Point", "coordinates": [ -73.894293012191895, 40.866175276297781 ] } },
{ "type": "Feature", "properties": { "OBJECTID": 55.0, "ID": 135.0, "NAME": "Kingsbridge Rd", "ALT_NAME": null, "CROSS_ST": "Jerome Ave", "LONG_NAME": "Kingsbridge Rd (4) Bronx", "LABEL": "Kingsbridge Rd (4)", "BOROUGH": "Bronx", "NGHBHD": null, "ROUTES": "4", "TRANSFERS": "4", "COLOR": "GREEN", "EXPRESS": null, "CLOSED": null }, "geometry": { "type": "Point", "coordinates": [ -73.89740117697076, 40.867496780478881 ] } },
{ "type": "Feature", "properties": { "OBJECTID": 56.0, "ID": 144.0, "NAME": "Longwood Ave", "ALT_NAME": null, "CROSS_ST": "Southern Blvd", "LONG_NAME": "Longwood Ave (6) Bronx", "LABEL": "Longwood Ave (6)", "BOROUGH": "Bronx", "NGHBHD": null, "ROUTES": "6", "TRANSFERS": "6", "COLOR": "GREEN", "EXPRESS": null, "CLOSED": null }, "geometry": { "type": "Point", "coordinates": [ -73.896210000473999, 40.816321001029976 ] } },
{ "type": "Feature", "properties": { "OBJECTID": 57.0, "ID": 154.0, "NAME": "Middletown Rd", "ALT_NAME": null, "CROSS_ST": "Westchester Ave", "LONG_NAME": "Middletown Rd (6) Bronx", "LABEL": "Middletown Rd (6)", "BOROUGH": "Bronx", "NGHBHD": null, "ROUTES": "6", "TRANSFERS": "6", "COLOR": "GREEN", "EXPRESS": null, "CLOSED": null }, "geometry": { "type": "Point", "coordinates": [ -73.836766301938823, 40.843472774795075 ] } },
{ "type": "Feature", "properties": { "OBJECTID": 58.0, "ID": 65.0, "NAME": "Morris Park", "ALT_NAME": null, "CROSS_ST": "Esplanade", "LONG_NAME": "Morris Park (5) Bronx", "LABEL": "Morris Park (5)", "BOROUGH": "Bronx", "NGHBHD": null, "ROUTES": "5", "TRANSFERS": "5", "COLOR": "GREEN", "EXPRESS": null, "CLOSED": null }, "geometry": { "type": "Point", "coordinates": [ -73.86035899943289, 40.854472000276452 ] } },
{ "type": "Feature", "properties": { "OBJECTID": 59.0, "ID": 148.0, "NAME": "Sound View Ave", "ALT_NAME": "Morrison Ave", "CROSS_ST": "Westchester Ave", "LONG_NAME": "Sound View Ave / Morrison Ave (6) Bronx", "LABEL": "Sound View Ave / Morrison Ave (6)", "BOROUGH": "Bronx", "NGHBHD": null, "ROUTES": "6", "TRANSFERS": "6", "COLOR": "GREEN", "EXPRESS": null, "CLOSED": null }, "geometry": { "type": "Point", "coordinates": [ -73.874474999445098, 40.829527000396489 ] } },
{ "type": "Feature", "properties": { "OBJECTID": 60.0, "ID": 137.0, "NAME": "Mosholu Pky", "ALT_NAME": null, "CROSS_ST": "Jerome Ave", "LONG_NAME": "Mosholu Pky (4) Bronx", "LABEL": "Mosholu Pky (4)", "BOROUGH": "Bronx", "NGHBHD": null, "ROUTES": "4", "TRANSFERS": "4", "COLOR": "GREEN", "EXPRESS": null, "CLOSED": null }, "geometry": { "type": "Point", "coordinates": [ -73.884635000382985, 40.879739999867688 ] } },
{ "type": "Feature", "properties": { "OBJECTID": 61.0, "ID": 130.0, "NAME": "Mt Eden Ave", "ALT_NAME": null, "CROSS_ST": "Jerome Ave", "LONG_NAME": "Mt Eden Ave (4) Bronx", "LABEL": "Mt Eden Ave (4)", "BOROUGH": "Bronx", "NGHBHD": null, "ROUTES": "4", "TRANSFERS": "4", "COLOR": "GREEN", "EXPRESS": null, "CLOSED": null }, "geometry": { "type": "Point", "coordinates": [ -73.914746001160793, 40.84429200033329 ] } },
{ "type": "Feature", "properties": { "OBJECTID": 62.0, "ID": 63.0, "NAME": "Nereid Ave", "ALT_NAME": "238th St", "CROSS_ST": "White Plains Rd", "LONG_NAME": "Nereid Ave / 238th St (2,5) Bronx", "LABEL": "Nereid Ave / 238th St (2,5)", "BOROUGH": "Bronx", "NGHBHD": null, "ROUTES": "2,5", "TRANSFERS": "2,5", "COLOR": "RED-GREEN", "EXPRESS": null, "CLOSED": null }, "geometry": { "type": "Point", "coordinates": [ -73.854322540840869, 40.898462135713295 ] } },
{ "type": "Feature", "properties": { "OBJECTID": 63.0, "ID": 156.0, "NAME": "Pelham Bay Park", "ALT_NAME": null, "CROSS_ST": "Bruckner Exy", "LONG_NAME": "Pelham Bay Park (6) Bronx", "LABEL": "Pelham Bay Park (6)", "BOROUGH": "Bronx", "NGHBHD": null, "ROUTES": "6", "TRANSFERS": "6", "COLOR": "GREEN", "EXPRESS": null, "CLOSED": null }, "geometry": { "type": "Point", "coordinates": [ -73.82709499889242, 40.852928000820832 ] } },
{ "type": "Feature", "properties": { "OBJECTID": 64.0, "ID": 66.0, "NAME": "Pelham Pky", "ALT_NAME": null, "CROSS_ST": "Williamsbridge Rd", "LONG_NAME": "Pelham Pky (5) Bronx", "LABEL": "Pelham Pky (5)", "BOROUGH": "Bronx", "NGHBHD": null, "ROUTES": "5", "TRANSFERS": "5", "COLOR": "GREEN", "EXPRESS": null, "CLOSED": null }, "geometry": { "type": "Point", "coordinates": [ -73.856079325968409, 40.858169783699218 ] } },
{ "type": "Feature", "properties": { "OBJECTID": 65.0, "ID": 56.0, "NAME": "Pelham Pky", "ALT_NAME": null, "CROSS_ST": "White Plains Rd", "LONG_NAME": "Pelham Pky (2,5) Bronx", "LABEL": "Pelham Pky (2,5)", "BOROUGH": "Bronx", "NGHBHD": null, "ROUTES": "2,5", "TRANSFERS": "2,5", "COLOR": "RED-GREEN", "EXPRESS": null, "CLOSED": null }, "geometry": { "type": "Point", "coordinates": [ -73.867607313614187, 40.857235232886779 ] } },
{ "type": "Feature", "properties": { "OBJECTID": 66.0, "ID": 48.0, "NAME": "Prospect Ave", "ALT_NAME": null, "CROSS_ST": "Westchester Ave", "LONG_NAME": "Prospect Ave (2,5) Bronx", "LABEL": "Prospect Ave (2,5)", "BOROUGH": "Bronx", "NGHBHD": null, "ROUTES": "2,5", "TRANSFERS": "2,5", "COLOR": "RED-GREEN", "EXPRESS": null, "CLOSED": null }, "geometry": { "type": "Point", "coordinates": [ -73.901628559530195, 40.819677726866068 ] } },
{ "type": "Feature", "properties": { "OBJECTID": 67.0, "ID": 50.0, "NAME": "Simpson St", "ALT_NAME": null, "CROSS_ST": "Westchester Ave", "LONG_NAME": "Simpson St (2,5) Bronx", "LABEL": "Simpson St (2,5)", "BOROUGH": "Bronx", "NGHBHD": null, "ROUTES": "2,5", "TRANSFERS": "2,5", "COLOR": "RED-GREEN", "EXPRESS": null, "CLOSED": null }, "geometry": { "type": "Point", "coordinates": [ -73.89295544631031, 40.824130777073762 ] } },
{ "type": "Feature", "properties": { "OBJECTID": 68.0, "ID": 149.0, "NAME": "St Lawrence Ave", "ALT_NAME": null, "CROSS_ST": "Westchester Ave", "LONG_NAME": "St Lawrence Ave (6) Bronx", "LABEL": "St Lawrence Ave (6)", "BOROUGH": "Bronx", "NGHBHD": null, "ROUTES": "6", "TRANSFERS": "6", "COLOR": "GREEN", "EXPRESS": null, "CLOSED": null }, "geometry": { "type": "Point", "coordinates": [ -73.86728042815561, 40.83159841308305 ] } },
{ "type": "Feature", "properties": { "OBJECTID": 69.0, "ID": 211.0, "NAME": "Tremont Ave", "ALT_NAME": null, "CROSS_ST": "Grand Concourse", "LONG_NAME": "Tremont Ave (B,D) Bronx", "LABEL": "Tremont Ave (B,D)", "BOROUGH": "Bronx", "NGHBHD": null, "ROUTES": "B,D", "TRANSFERS": "B,D", "COLOR": "ORANGE", "EXPRESS": "express", "CLOSED": null }, "geometry": { "type": "Point", "coordinates": [ -73.90593039070049, 40.849489923588521 ] } },
{ "type": "Feature", "properties": { "OBJECTID": 70.0, "ID": 153.0, "NAME": "Westchester Sq", "ALT_NAME": "E Tremont Ave", "CROSS_ST": "Westchester Ave", "LONG_NAME": "Westchester Sq / E Tremont Ave (6) Bronx", "LABEL": "Westchester Sq / E Tremont Ave (6)", "BOROUGH": "Bronx", "NGHBHD": null, "ROUTES": "6", "TRANSFERS": "6", "COLOR": "GREEN", "EXPRESS": null, "CLOSED": null }, "geometry": { "type": "Point", "coordinates": [ -73.842011468690345, 40.840609606893096 ] } },
{ "type": "Feature", "properties": { "OBJECTID": 71.0, "ID": 146.0, "NAME": "Whitlock Ave", "ALT_NAME": null, "CROSS_ST": "Westchester Ave", "LONG_NAME": "Whitlock Ave (6) Bronx", "LABEL": "Whitlock Ave (6)", "BOROUGH": "Bronx", "NGHBHD": null, "ROUTES": "6", "TRANSFERS": "6", "COLOR": "GREEN", "EXPRESS": null, "CLOSED": null }, "geometry": { "type": "Point", "coordinates": [ -73.88609000050063, 40.827566000095317 ] } },
{ "type": "Feature", "properties": { "OBJECTID": 72.0, "ID": 138.0, "NAME": "Woodlawn", "ALT_NAME": null, "CROSS_ST": "Jerome Ave", "LONG_NAME": "Woodlawn (4) Bronx", "LABEL": "Woodlawn (4)", "BOROUGH": "Bronx", "NGHBHD": null, "ROUTES": "4", "TRANSFERS": "4", "COLOR": "GREEN", "EXPRESS": null, "CLOSED": null }, "geometry": { "type": "Point", "coordinates": [ -73.878770000276461, 40.886019000521785 ] } },
{ "type": "Feature", "properties": { "OBJECTID": 73.0, "ID": 152.0, "NAME": "Zerega Ave", "ALT_NAME": null, "CROSS_ST": "Westchester Ave", "LONG_NAME": "Zerega Ave (6) Bronx", "LABEL": "Zerega Ave (6)", "BOROUGH": "Bronx", "NGHBHD": null, "ROUTES": "6", "TRANSFERS": "6", "COLOR": "GREEN", "EXPRESS": null, "CLOSED": null }, "geometry": { "type": "Point", "coordinates": [ -73.846694333433661, 40.83677053041437 ] } },
{ "type": "Feature", "properties": { "OBJECTID": 74.0, "ID": 344.0, "NAME": "15th St", "ALT_NAME": "Prospect Park", "CROSS_ST": "Prospect Park West", "LONG_NAME": "15th St / Prospect Park (F) Brooklyn", "LABEL": "15th St / Prospect Park (F)", "BOROUGH": "Brooklyn", "NGHBHD": null, "ROUTES": "F", "TRANSFERS": "F", "COLOR": "ORANGE", "EXPRESS": null, "CLOSED": null }, "geometry": { "type": "Point", "coordinates": [ -73.979428345243974, 40.660787052022791 ] } },
{ "type": "Feature", "properties": { "OBJECTID": 75.0, "ID": 422.0, "NAME": "18th Ave", "ALT_NAME": null, "CROSS_ST": "New Utrecht Ave", "LONG_NAME": "18th Ave (D,M) Brooklyn", "LABEL": "18th Ave (D,M)", "BOROUGH": "Brooklyn", "NGHBHD": null, "ROUTES": "D,M", "TRANSFERS": "D,M", "COLOR": "BROWN-ORANGE", "EXPRESS": null, "CLOSED": null }, "geometry": { "type": "Point", "coordinates": [ -74.00172875612391, 40.607968709781616 ] } },
{ "type": "Feature", "properties": { "OBJECTID": 76.0, "ID": 430.0, "NAME": "18th Ave", "ALT_NAME": null, "CROSS_ST": "64th St", "LONG_NAME": "18th Ave (N) Brooklyn", "LABEL": "18th Ave (N)", "BOROUGH": "Brooklyn", "NGHBHD": null, "ROUTES": "N", "TRANSFERS": "N", "COLOR": "YELLOW", "EXPRESS": null, "CLOSED": null }, "geometry": { "type": "Point", "coordinates": [ -73.98931405026957, 40.620000162162455 ] } },
{ "type": "Feature", "properties": { "OBJECTID": 77.0, "ID": 348.0, "NAME": "18th Ave", "ALT_NAME": null, "CROSS_ST": "McDonald Ave", "LONG_NAME": "18th Ave (F) Brooklyn", "LABEL": "18th Ave (F)", "BOROUGH": "Brooklyn", "NGHBHD": null, "ROUTES": "F", "TRANSFERS": "F", "COLOR": "ORANGE", "EXPRESS": null, "CLOSED": null }, "geometry": { "type": "Point", "coordinates": [ -73.977132605999699, 40.630741226613324 ] } },
{ "type": "Feature", "properties": { "OBJECTID": 78.0, "ID": 431.0, "NAME": "20th Ave", "ALT_NAME": null, "CROSS_ST": "64th St", "LONG_NAME": "20th Ave (N) Brooklyn", "LABEL": "20th Ave (N)", "BOROUGH": "Brooklyn", "NGHBHD": null, "ROUTES": "N", "TRANSFERS": "N", "COLOR": "YELLOW", "EXPRESS": null, "CLOSED": null }, "geometry": { "type": "Point", "coordinates": [ -73.984949580329044, 40.617358916103797 ] } },
{ "type": "Feature", "properties": { "OBJECTID": 79.0, "ID": 423.0, "NAME": "20th Ave", "ALT_NAME": null, "CROSS_ST": "86th St", "LONG_NAME": "20th Ave (D,M) Brooklyn", "LABEL": "20th Ave (D,M)", "BOROUGH": "Brooklyn", "NGHBHD": null, "ROUTES": "D,M", "TRANSFERS": "D,M", "COLOR": "BROWN-ORANGE", "EXPRESS": null, "CLOSED": null }, "geometry": { "type": "Point", "coordinates": [ -73.998251001479233, 40.604630999297946 ] } },
{ "type": "Feature", "properties": { "OBJECTID": 80.0, "ID": 425.0, "NAME": "25th Ave", "ALT_NAME": null, "CROSS_ST": "86th St", "LONG_NAME": "25th Ave (D) Brooklyn", "LABEL": "25th Ave (D)", "BOROUGH": "Brooklyn", "NGHBHD": null, "ROUTES": "D", "TRANSFERS": "D", "COLOR": "ORANGE", "EXPRESS": null, "CLOSED": null }, "geometry": { "type": "Point", "coordinates": [ -73.987177057002484, 40.597911055851235 ] } },
{ "type": "Feature", "properties": { "OBJECTID": 81.0, "ID": 406.0, "NAME": "25th St", "ALT_NAME": null, "CROSS_ST": "4th Ave", "LONG_NAME": "25th St (M,R) Brooklyn", "LABEL": "25th St (M,R)", "BOROUGH": "Brooklyn", "NGHBHD": null, "ROUTES": "M,R", "TRANSFERS": "M,R", "COLOR": "BROWN-YELLOW", "EXPRESS": null, "CLOSED": null }, "geometry": { "type": "Point", "coordinates": [ -73.998020867323589, 40.660467677851024 ] } },
{ "type": "Feature", "properties": { "OBJECTID": 82.0, "ID": 407.0, "NAME": "36th St", "ALT_NAME": null, "CROSS_ST": "4th Ave", "LONG_NAME": "36th St (D,M,N,R) Brooklyn", "LABEL": "36th St (D,M,N,R)", "BOROUGH": "Brooklyn", "NGHBHD": null, "ROUTES": "D,M,N,R", "TRANSFERS": "D,M,N,R", "COLOR": "BROWN-ORANGE-YELLOW", "EXPRESS": "express", "CLOSED": null }, "geometry": { "type": "Point", "coordinates": [ -74.004431761203691, 40.65431028934298 ] } },
{ "type": "Feature", "properties": { "OBJECTID": 83.0, "ID": 408.0, "NAME": "45th St", "ALT_NAME": null, "CROSS_ST": "4th Ave", "LONG_NAME": "45th St (R) Brooklyn", "LABEL": "45th St (R)", "BOROUGH": "Brooklyn", "NGHBHD": null, "ROUTES": "R", "TRANSFERS": "R", "COLOR": "YELLOW", "EXPRESS": null, "CLOSED": null }, "geometry": { "type": "Point", "coordinates": [ -74.009666491598452, 40.649260990478766 ] } },
{ "type": "Feature", "properties": { "OBJECTID": 84.0, "ID": 342.0, "NAME": "4th Ave", "ALT_NAME": "9th St", "CROSS_ST": "9th St", "LONG_NAME": "4th Ave / 9th St (F) Brooklyn", "LABEL": "4th Ave / 9th St (F)", "BOROUGH": "Brooklyn", "NGHBHD": null, "ROUTES": "F", "TRANSFERS": "D,F,M,R", "COLOR": "ORANGE", "EXPRESS": null, "CLOSED": null }, "geometry": { "type": "Point", "coordinates": [ -73.989055621153469, 40.669928910044923 ] } },
{ "type": "Feature", "properties": { "OBJECTID": 85.0, "ID": 417.0, "NAME": "50th St", "ALT_NAME": null, "CROSS_ST": "New Utrecht Ave", "LONG_NAME": "50th St (D,M) Brooklyn", "LABEL": "50th St (D,M)", "BOROUGH": "Brooklyn", "NGHBHD": null, "ROUTES": "D,M", "TRANSFERS": "D,M", "COLOR": "BROWN-ORANGE", "EXPRESS": null, "CLOSED": null }, "geometry": { "type": "Point", "coordinates": [ -73.994830867007977, 40.635762384451986 ] } },
{ "type": "Feature", "properties": { "OBJECTID": 86.0, "ID": 409.0, "NAME": "53rd St", "ALT_NAME": null, "CROSS_ST": "4th Ave", "LONG_NAME": "53rd St (R) Brooklyn", "LABEL": "53rd St (R)", "BOROUGH": "Brooklyn", "NGHBHD": null, "ROUTES": "R", "TRANSFERS": "R", "COLOR": "YELLOW", "EXPRESS": null, "CLOSED": null }, "geometry": { "type": "Point", "coordinates": [ -74.014322224788998, 40.644795374532357 ] } },
{ "type": "Feature", "properties": { "OBJECTID": 87.0, "ID": 418.0, "NAME": "55th St", "ALT_NAME": null, "CROSS_ST": "New Utrecht Ave", "LONG_NAME": "55th St (D,M) Brooklyn", "LABEL": "55th St (D,M)", "BOROUGH": "Brooklyn", "NGHBHD": null, "ROUTES": "D,M", "TRANSFERS": "D,M", "COLOR": "BROWN-ORANGE", "EXPRESS": null, "CLOSED": null }, "geometry": { "type": "Point", "coordinates": [ -73.995441352558785, 40.631559651535348 ] } },
{ "type": "Feature", "properties": { "OBJECTID": 88.0, "ID": 410.0, "NAME": "59th St", "ALT_NAME": null, "CROSS_ST": "4th Ave", "LONG_NAME": "59th St (N,R) Brooklyn", "LABEL": "59th St (N,R)", "BOROUGH": "Brooklyn", "NGHBHD": null, "ROUTES": "N,R", "TRANSFERS": "N,R", "COLOR": "YELLOW", "EXPRESS": "express", "CLOSED": null }, "geometry": { "type": "Point", "coordinates": [ -74.017819613339157, 40.641413706180124 ] } },
{ "type": "Feature", "properties": { "OBJECTID": 89.0, "ID": 419.0, "NAME": "62nd St", "ALT_NAME": "New Utrecht Ave", "CROSS_ST": "New Utrecht Ave", "LONG_NAME": "62nd St / New Utrecht Ave (M,D) Brooklyn", "LABEL": "62nd St / New Utrecht Ave (M,D)", "BOROUGH": "Brooklyn", "NGHBHD": null, "ROUTES": "M,D", "TRANSFERS": "D,M,N", "COLOR": "BROWN-ORANGE", "EXPRESS": null, "CLOSED": null }, "geometry": { "type": "Point", "coordinates": [ -73.996988220790357, 40.626069247664873 ] } },
{ "type": "Feature", "properties": { "OBJECTID": 90.0, "ID": 420.0, "NAME": "71st St", "ALT_NAME": null, "CROSS_ST": "New Utrecht Ave", "LONG_NAME": "71st St (D,M) Brooklyn", "LABEL": "71st St (D,M)", "BOROUGH": "Brooklyn", "NGHBHD": null, "ROUTES": "D,M", "TRANSFERS": "D,M", "COLOR": "BROWN-ORANGE", "EXPRESS": null, "CLOSED": null }, "geometry": { "type": "Point", "coordinates": [ -73.99902959592545, 40.618966192251243 ] } },
{ "type": "Feature", "properties": { "OBJECTID": 91.0, "ID": 412.0, "NAME": "77th St", "ALT_NAME": null, "CROSS_ST": "4th Ave", "LONG_NAME": "77th St (R) Brooklyn", "LABEL": "77th St (R)", "BOROUGH": "Brooklyn", "NGHBHD": null, "ROUTES": "R", "TRANSFERS": "R", "COLOR": "YELLOW", "EXPRESS": null, "CLOSED": null }, "geometry": { "type": "Point", "coordinates": [ -74.025647584818174, 40.629381914500208 ] } },
{ "type": "Feature", "properties": { "OBJECTID": 92.0, "ID": 421.0, "NAME": "79th St", "ALT_NAME": null, "CROSS_ST": "New Utrecht Ave", "LONG_NAME": "79th St (D,M) Brooklyn", "LABEL": "79th St (D,M)", "BOROUGH": "Brooklyn", "NGHBHD": null, "ROUTES": "D,M", "TRANSFERS": "D,M", "COLOR": "BROWN-ORANGE", "EXPRESS": null, "CLOSED": null }, "geometry": { "type": "Point", "coordinates": [ -74.00082529834684, 40.612632293894848 ] } },
{ "type": "Feature", "properties": { "OBJECTID": 93.0, "ID": 384.0, "NAME": "7th Ave", "ALT_NAME": null, "CROSS_ST": "Flatbush Ave", "LONG_NAME": "7th Ave (B,Q) Brooklyn", "LABEL": "7th Ave (B,Q)", "BOROUGH": "Brooklyn", "NGHBHD": null, "ROUTES": "B,Q", "TRANSFERS": "B,Q", "COLOR": "ORANGE-YELLOW", "EXPRESS": "express", "CLOSED": null }, "geometry": { "type": "Point", "coordinates": [ -73.973076396684604, 40.677958878170948 ] } },
{ "type": "Feature", "properties": { "OBJECTID": 94.0, "ID": 343.0, "NAME": "7th Ave", "ALT_NAME": null, "CROSS_ST": "9th St", "LONG_NAME": "7th Ave (F) Brooklyn", "LABEL": "7th Ave (F)", "BOROUGH": "Brooklyn", "NGHBHD": null, "ROUTES": "F", "TRANSFERS": "F", "COLOR": "ORANGE", "EXPRESS": null, "CLOSED": null }, "geometry": { "type": "Point", "coordinates": [ -73.981577883918021, 40.666886713120746 ] } },
{ "type": "Feature", "properties": { "OBJECTID": 95.0, "ID": 435.0, "NAME": "86th St", "ALT_NAME": "Gravesend", "CROSS_ST": "W 7th St", "LONG_NAME": "86th St / Gravesend (N) Brooklyn", "LABEL": "86th St / Gravesend (N)", "BOROUGH": "Brooklyn", "NGHBHD": null, "ROUTES": "N", "TRANSFERS": "N", "COLOR": "YELLOW", "EXPRESS": null, "CLOSED": null }, "geometry": { "type": "Point", "coordinates": [ -73.978206395987471, 40.59258360350632 ] } },
{ "type": "Feature", "properties": { "OBJECTID": 96.0, "ID": 413.0, "NAME": "86th St", "ALT_NAME": null, "CROSS_ST": "4th Ave", "LONG_NAME": "86th St (R) Brooklyn", "LABEL": "86th St (R)", "BOROUGH": "Brooklyn", "NGHBHD": null, "ROUTES": "R", "TRANSFERS": "R", "COLOR": "YELLOW", "EXPRESS": null, "CLOSED": null }, "geometry": { "type": "Point", "coordinates": [ -74.028347465285037, 40.62279671903763 ] } },
{ "type": "Feature", "properties": { "OBJECTID": 97.0, "ID": 427.0, "NAME": "8th Ave", "ALT_NAME": null, "CROSS_ST": "62nd St", "LONG_NAME": "8th Ave (N) Brooklyn", "LABEL": "8th Ave (N)", "BOROUGH": "Brooklyn", "NGHBHD": null, "ROUTES": "N", "TRANSFERS": "N", "COLOR": "YELLOW", "EXPRESS": null, "CLOSED": null }, "geometry": { "type": "Point", "coordinates": [ -74.010596875925756, 40.634504462289485 ] } },
{ "type": "Feature", "properties": { "OBJECTID": 98.0, "ID": 414.0, "NAME": "95th St", "ALT_NAME": "Bay Ridge", "CROSS_ST": "4th Ave", "LONG_NAME": "95th St / Bay Ridge (R) Brooklyn", "LABEL": "95th St / Bay Ridge (R)", "BOROUGH": "Brooklyn", "NGHBHD": null, "ROUTES": "R", "TRANSFERS": "R", "COLOR": "YELLOW", "EXPRESS": null, "CLOSED": null }, "geometry": { "type": "Point", "coordinates": [ -74.031081399161451, 40.615976325465219 ] } },
{ "type": "Feature", "properties": { "OBJECTID": 99.0, "ID": 415.0, "NAME": "9th Ave", "ALT_NAME": null, "CROSS_ST": "39th St", "LONG_NAME": "9th Ave (D,M) Brooklyn", "LABEL": "9th Ave (D,M)", "BOROUGH": "Brooklyn", "NGHBHD": null, "ROUTES": "D,M", "TRANSFERS": "D,M", "COLOR": "BROWN-ORANGE", "EXPRESS": null, "CLOSED": null }, "geometry": { "type": "Point", "coordinates": [ -73.994567094748675, 40.646451266310315 ] } },
{ "type": "Feature", "properties": { "OBJECTID": 100.0, "ID": 404.0, "NAME": "9th St", "ALT_NAME": "4th Ave", "CROSS_ST": "4th Ave", "LONG_NAME": "9th St / 4th Ave (M,R) Brooklyn", "LABEL": "9th St / 4th Ave (M,R)", "BOROUGH": "Brooklyn", "NGHBHD": null, "ROUTES": "M,R", "TRANSFERS": "F,M,R", "COLOR": "BROWN-YELLOW", "EXPRESS": null, "CLOSED": null }, "geometry": { "type": "Point", "coordinates": [ -73.988716717336445, 40.67034274568465 ] } },
{ "type": "Feature", "properties": { "OBJECTID": 101.0, "ID": 320.0, "NAME": "Alabama Ave", "ALT_NAME": null, "CROSS_ST": "Fulton St", "LONG_NAME": "Alabama Ave (J) Brooklyn", "LABEL": "Alabama Ave (J)", "BOROUGH": "Brooklyn", "NGHBHD": null, "ROUTES": "J", "TRANSFERS": "J", "COLOR": "BROWN", "EXPRESS": null, "CLOSED": null }, "geometry": { "type": "Point", "coordinates": [ -73.899949785782937, 40.67686624560023 ] } },
{ "type": "Feature", "properties": { "OBJECTID": 102.0, "ID": 383.0, "NAME": "Atlantic Ave", "ALT_NAME": "Brooklyn Academy of Music", "CROSS_ST": "Flatbush Ave", "LONG_NAME": "Atlantic Ave / Brooklyn Academy of Music (B,Q) Brooklyn", "LABEL": "Atlantic Ave / Brooklyn Academy of Music (B,Q)", "BOROUGH": "Brooklyn", "NGHBHD": null, "ROUTES": "B,Q", "TRANSFERS": "B,D,M,N,Q,R,2,3,4,5", "COLOR": "ORANGE-YELLOW", "EXPRESS": "express", "CLOSED": null }, "geometry": { "type": "Point", "coordinates": [ -73.976772007869556, 40.683796482996669 ] } },
{ "type": "Feature", "properties": { "OBJECTID": 103.0, "ID": 457.0, "NAME": "Atlantic Ave", "ALT_NAME": null, "CROSS_ST": "Snediker Ave", "LONG_NAME": "Atlantic Ave (L) Brooklyn", "LABEL": "Atlantic Ave (L)", "BOROUGH": "Brooklyn", "NGHBHD": null, "ROUTES": "L", "TRANSFERS": "L", "COLOR": "GREY", "EXPRESS": null, "CLOSED": null }, "geometry": { "type": "Point", "coordinates": [ -73.902922937917424, 40.675802681809294 ] } },
{ "type": "Feature", "properties": { "OBJECTID": 104.0, "ID": 77.0, "NAME": "Atlantic Ave", "ALT_NAME": "Brooklyn Academy of Music", "CROSS_ST": "Flatbush Ave", "LONG_NAME": "Atlantic Ave / Brooklyn Academy of Music (2,3,4,5) Brooklyn", "LABEL": "Atlantic Ave / Brooklyn Academy of Music (2,3,4,5)", "BOROUGH": "Brooklyn", "NGHBHD": null, "ROUTES": "2,3,4,5", "TRANSFERS": "B,D,M,N,Q,R,2,3,4,5", "COLOR": "GREEN-RED", "EXPRESS": "express", "CLOSED": null }, "geometry": { "type": "Point", "coordinates": [ -73.977431272038501, 40.684055129723816 ] } },
{ "type": "Feature", "properties": { "OBJECTID": 105.0, "ID": 391.0, "NAME": "Ave H", "ALT_NAME": null, "CROSS_ST": "E 16th St", "LONG_NAME": "Ave H (Q) Brooklyn", "LABEL": "Ave H (Q)", "BOROUGH": "Brooklyn", "NGHBHD": null, "ROUTES": "Q", "TRANSFERS": "Q", "COLOR": "YELLOW", "EXPRESS": null, "CLOSED": null }, "geometry": { "type": "Point", "coordinates": [ -73.961777876090082, 40.630019591275179 ] } },
{ "type": "Feature", "properties": { "OBJECTID": 106.0, "ID": 349.0, "NAME": "Ave I", "ALT_NAME": null, "CROSS_ST": "McDonald Ave", "LONG_NAME": "Ave I (F) Brooklyn", "LABEL": "Ave I (F)", "BOROUGH": "Brooklyn", "NGHBHD": null, "ROUTES": "F", "TRANSFERS": "F", "COLOR": "ORANGE", "EXPRESS": null, "CLOSED": null }, "geometry": { "type": "Point", "coordinates": [ -73.976248858518659, 40.62597081371576 ] } },
{ "type": "Feature", "properties": { "OBJECTID": 107.0, "ID": 392.0, "NAME": "Ave J", "ALT_NAME": null, "CROSS_ST": "E 16th St", "LONG_NAME": "Ave J (Q) Brooklyn", "LABEL": "Ave J (Q)", "BOROUGH": "Brooklyn", "NGHBHD": null, "ROUTES": "Q", "TRANSFERS": "Q", "COLOR": "YELLOW", "EXPRESS": null, "CLOSED": null }, "geometry": { "type": "Point", "coordinates": [ -73.960847736930347, 40.625234724258988 ] } },
{ "type": "Feature", "properties": { "OBJECTID": 108.0, "ID": 393.0, "NAME": "Ave M", "ALT_NAME": null, "CROSS_ST": "E 16th St", "LONG_NAME": "Ave M (Q) Brooklyn", "LABEL": "Ave M (Q)", "BOROUGH": "Brooklyn", "NGHBHD": null, "ROUTES": "Q", "TRANSFERS": "Q", "COLOR": "YELLOW", "EXPRESS": null, "CLOSED": null }, "geometry": { "type": "Point", "coordinates": [ -73.959463345902947, 40.618057831134408 ] } },
{ "type": "Feature", "properties": { "OBJECTID": 109.0, "ID": 351.0, "NAME": "Ave N", "ALT_NAME": null, "CROSS_ST": "McDonald Ave", "LONG_NAME": "Ave N (F) Brooklyn", "LABEL": "Ave N (F)", "BOROUGH": "Brooklyn", "NGHBHD": null, "ROUTES": "F", "TRANSFERS": "F", "COLOR": "ORANGE", "EXPRESS": null, "CLOSED": null }, "geometry": { "type": "Point", "coordinates": [ -73.973966920044631, 40.614036512335218 ] } },
{ "type": "Feature", "properties": { "OBJECTID": 110.0, "ID": 352.0, "NAME": "Ave P", "ALT_NAME": null, "CROSS_ST": "McDonald Ave", "LONG_NAME": "Ave P (F) Brooklyn", "LABEL": "Ave P (F)", "BOROUGH": "Brooklyn", "NGHBHD": null, "ROUTES": "F", "TRANSFERS": "F", "COLOR": "ORANGE", "EXPRESS": null, "CLOSED": null }, "geometry": { "type": "Point", "coordinates": [ -73.972956999020951, 40.608807000562123 ] } },
{ "type": "Feature", "properties": { "OBJECTID": 111.0, "ID": 395.0, "NAME": "Ave U", "ALT_NAME": null, "CROSS_ST": "E 16th St", "LONG_NAME": "Ave U (Q) Brooklyn", "LABEL": "Ave U (Q)", "BOROUGH": "Brooklyn", "NGHBHD": null, "ROUTES": "Q", "TRANSFERS": "Q", "COLOR": "YELLOW", "EXPRESS": null, "CLOSED": null }, "geometry": { "type": "Point", "coordinates": [ -73.955832842350517, 40.598899413201465 ] } },
{ "type": "Feature", "properties": { "OBJECTID": 112.0, "ID": 434.0, "NAME": "Ave U", "ALT_NAME": null, "CROSS_ST": "W 7th St", "LONG_NAME": "Ave U (N) Brooklyn", "LABEL": "Ave U (N)", "BOROUGH": "Brooklyn", "NGHBHD": null, "ROUTES": "N", "TRANSFERS": "N", "COLOR": "YELLOW", "EXPRESS": null, "CLOSED": null }, "geometry": { "type": "Point", "coordinates": [ -73.978914064324371, 40.596420699878358 ] } },
{ "type": "Feature", "properties": { "OBJECTID": 113.0, "ID": 354.0, "NAME": "Ave U", "ALT_NAME": null, "CROSS_ST": "McDonald Ave", "LONG_NAME": "Ave U (F) Brooklyn", "LABEL": "Ave U (F)", "BOROUGH": "Brooklyn", "NGHBHD": null, "ROUTES": "F", "TRANSFERS": "F", "COLOR": "ORANGE", "EXPRESS": null, "CLOSED": null }, "geometry": { "type": "Point", "coordinates": [ -73.973285430855555, 40.596967922575494 ] } },
{ "type": "Feature", "properties": { "OBJECTID": 114.0, "ID": 355.0, "NAME": "Ave X", "ALT_NAME": null, "CROSS_ST": "McDonald Ave", "LONG_NAME": "Ave X (F) Brooklyn", "LABEL": "Ave X (F)", "BOROUGH": "Brooklyn", "NGHBHD": null, "ROUTES": "F", "TRANSFERS": "F", "COLOR": "ORANGE", "EXPRESS": null, "CLOSED": null }, "geometry": { "type": "Point", "coordinates": [ -73.974196815305547, 40.590107967459893 ] } },
{ "type": "Feature", "properties": { "OBJECTID": 115.0, "ID": 426.0, "NAME": "Bay 50th St", "ALT_NAME": null, "CROSS_ST": "Stillwell Ave", "LONG_NAME": "Bay 50th St (D) Brooklyn", "LABEL": "Bay 50th St (D)", "BOROUGH": "Brooklyn", "NGHBHD": null, "ROUTES": "D", "TRANSFERS": "D", "COLOR": "ORANGE", "EXPRESS": null, "CLOSED": null }, "geometry": { "type": "Point", "coordinates": [ -73.983726755752414, 40.588581011918698 ] } },
{ "type": "Feature", "properties": { "OBJECTID": 116.0, "ID": 424.0, "NAME": "Bay Pky", "ALT_NAME": null, "CROSS_ST": "86th St", "LONG_NAME": "Bay Pky (D,M) Brooklyn", "LABEL": "Bay Pky (D,M)", "BOROUGH": "Brooklyn", "NGHBHD": null, "ROUTES": "D,M", "TRANSFERS": "D,M", "COLOR": "BROWN-ORANGE", "EXPRESS": null, "CLOSED": null }, "geometry": { "type": "Point", "coordinates": [ -73.993851998599524, 40.601958999847405 ] } },
{ "type": "Feature", "properties": { "OBJECTID": 117.0, "ID": 432.0, "NAME": "Bay Pky", "ALT_NAME": null, "CROSS_ST": "W 7th St/Ave", "LONG_NAME": "Bay Pky (N) Brooklyn", "LABEL": "Bay Pky (N)", "BOROUGH": "Brooklyn", "NGHBHD": null, "ROUTES": "N", "TRANSFERS": "N", "COLOR": "YELLOW", "EXPRESS": null, "CLOSED": null }, "geometry": { "type": "Point", "coordinates": [ -73.982123698072883, 40.613219948525924 ] } },
{ "type": "Feature", "properties": { "OBJECTID": 118.0, "ID": 350.0, "NAME": "Bay Pky", "ALT_NAME": null, "CROSS_ST": "McDonald Ave", "LONG_NAME": "Bay Pky (F) Brooklyn", "LABEL": "Bay Pky (F)", "BOROUGH": "Brooklyn", "NGHBHD": null, "ROUTES": "F", "TRANSFERS": "F", "COLOR": "ORANGE", "EXPRESS": null, "CLOSED": null }, "geometry": { "type": "Point", "coordinates": [ -73.975276360673163, 40.620933078843542 ] } },
{ "type": "Feature", "properties": { "OBJECTID": 119.0, "ID": 411.0, "NAME": "Bay Ridge Ave", "ALT_NAME": null, "CROSS_ST": "4th Ave", "LONG_NAME": "Bay Ridge Ave (R) Brooklyn", "LABEL": "Bay Ridge Ave (R)", "BOROUGH": "Brooklyn", "NGHBHD": null, "ROUTES": "R", "TRANSFERS": "R", "COLOR": "YELLOW", "EXPRESS": null, "CLOSED": null }, "geometry": { "type": "Point", "coordinates": [ -74.023513876687716, 40.634618729980978 ] } },
{ "type": "Feature", "properties": { "OBJECTID": 120.0, "ID": 444.0, "NAME": "Bedford Ave", "ALT_NAME": null, "CROSS_ST": "N 7th St", "LONG_NAME": "Bedford Ave (L) Brooklyn", "LABEL": "Bedford Ave (L)", "BOROUGH": "Brooklyn", "NGHBHD": null, "ROUTES": "L", "TRANSFERS": "L", "COLOR": "GREY", "EXPRESS": null, "CLOSED": null }, "geometry": { "type": "Point", "coordinates": [ -73.956543574318786, 40.717077370323572 ] } },
{ "type": "Feature", "properties": { "OBJECTID": 121.0, "ID": 282.0, "NAME": "Bedford Ave", "ALT_NAME": "Nostrand Ave", "CROSS_ST": "Lafayette Ave", "LONG_NAME": "Bedford Ave / Nostrand Ave (G) Brooklyn", "LABEL": "Bedford Ave / Nostrand Ave (G)", "BOROUGH": "Brooklyn", "NGHBHD": null, "ROUTES": "G", "TRANSFERS": "G", "COLOR": "LIME", "EXPRESS": null, "CLOSED": null }, "geometry": { "type": "Point", "coordinates": [ -73.953521999825952, 40.689627000478588 ] } },
{ "type": "Feature", "properties": { "OBJECTID": 122.0, "ID": 339.0, "NAME": "Bergen St", "ALT_NAME": null, "CROSS_ST": "Smith St", "LONG_NAME": "Bergen St (F,G) Brooklyn", "LABEL": "Bergen St (F,G)", "BOROUGH": "Brooklyn", "NGHBHD": null, "ROUTES": "F,G", "TRANSFERS": "F,G", "COLOR": "ORANGE-LIME", "EXPRESS": null, "CLOSED": null }, "geometry": { "type": "Point", "coordinates": [ -73.990452510566399, 40.68673709799068 ] } },
{ "type": "Feature", "properties": { "OBJECTID": 123.0, "ID": 78.0, "NAME": "Bergen St", "ALT_NAME": null, "CROSS_ST": "Flatbush Ave", "LONG_NAME": "Bergen St (2,3) Brooklyn", "LABEL": "Bergen St (2,3)", "BOROUGH": "Brooklyn", "NGHBHD": null, "ROUTES": "2,3", "TRANSFERS": "2,3", "COLOR": "RED-GREEN", "EXPRESS": null, "CLOSED": null }, "geometry": { "type": "Point", "coordinates": [ -73.975069998735506, 40.680838999376661 ] } },
{ "type": "Feature", "properties": { "OBJECTID": 124.0, "ID": 388.0, "NAME": "Beverly Rd", "ALT_NAME": null, "CROSS_ST": "E 16th St", "LONG_NAME": "Beverly Rd (Q) Brooklyn", "LABEL": "Beverly Rd (Q)", "BOROUGH": "Brooklyn", "NGHBHD": null, "ROUTES": "Q", "TRANSFERS": "Q", "COLOR": "YELLOW", "EXPRESS": null, "CLOSED": null }, "geometry": { "type": "Point", "coordinates": [ -73.964543241126634, 40.644359072571007 ] } },
{ "type": "Feature", "properties": { "OBJECTID": 125.0, "ID": 96.0, "NAME": "Beverly Rd", "ALT_NAME": null, "CROSS_ST": "Nostrand Ave", "LONG_NAME": "Beverly Rd (2,5) Brooklyn", "LABEL": "Beverly Rd (2,5)", "BOROUGH": "Brooklyn", "NGHBHD": null, "ROUTES": "2,5", "TRANSFERS": "2,5", "COLOR": "RED-GREEN", "EXPRESS": null, "CLOSED": null }, "geometry": { "type": "Point", "coordinates": [ -73.949002001600761, 40.645116000308683 ] } },
{ "type": "Feature", "properties": { "OBJECTID": 126.0, "ID": 101.0, "NAME": "Borough Hall", "ALT_NAME": "Court St", "CROSS_ST": "Joralemon St", "LONG_NAME": "Borough Hall / Court St (4,5) Brooklyn", "LABEL": "Borough Hall / Court St (4,5)", "BOROUGH": "Brooklyn", "NGHBHD": null, "ROUTES": "4,5", "TRANSFERS": "M,R,2,3,4,5", "COLOR": "GREEN", "EXPRESS": "express", "CLOSED": null }, "geometry": { "type": "Point", "coordinates": [ -73.990981748763161, 40.692525745093739 ] } },
{ "type": "Feature", "properties": { "OBJECTID": 127.0, "ID": 74.0, "NAME": "Borough Hall", "ALT_NAME": "Court St", "CROSS_ST": "Court St", "LONG_NAME": "Borough Hall / Court St (2,3) Brooklyn", "LABEL": "Borough Hall / Court St (2,3)", "BOROUGH": "Brooklyn", "NGHBHD": null, "ROUTES": "2,3", "TRANSFERS": "M,R,2,3,4,5", "COLOR": "RED", "EXPRESS": "express", "CLOSED": null }, "geometry": { "type": "Point", "coordinates": [ -73.990159999907817, 40.693683999340877 ] } },
{ "type": "Feature", "properties": { "OBJECTID": 128.0, "ID": 436.0, "NAME": "Botanic Garden", "ALT_NAME": null, "CROSS_ST": "Eastern Pky", "LONG_NAME": "Botanic Garden (S) Brooklyn", "LABEL": "Botanic Garden (S)", "BOROUGH": "Brooklyn", "NGHBHD": null, "ROUTES": "S", "TRANSFERS": "S,2,3,4,5", "COLOR": "GREY", "EXPRESS": null, "CLOSED": null }, "geometry": { "type": "Point", "coordinates": [ -73.95904898142048, 40.670866733279567 ] } },
{ "type": "Feature", "properties": { "OBJECTID": 129.0, "ID": 398.0, "NAME": "Brighton Beach", "ALT_NAME": null, "CROSS_ST": "Brighton 6 St", "LONG_NAME": "Brighton Beach (B,Q) Brooklyn", "LABEL": "Brighton Beach (B,Q)", "BOROUGH": "Brooklyn", "NGHBHD": null, "ROUTES": "B,Q", "TRANSFERS": "B,Q", "COLOR": "ORANGE-YELLOW", "EXPRESS": "express", "CLOSED": null }, "geometry": { "type": "Point", "coordinates": [ -73.9614497454901, 40.577632363291485 ] } },
{ "type": "Feature", "properties": { "OBJECTID": 130.0, "ID": 285.0, "NAME": "Broadway", "ALT_NAME": null, "CROSS_ST": "Union Ave", "LONG_NAME": "Broadway (G) Brooklyn", "LABEL": "Broadway (G)", "BOROUGH": "Brooklyn", "NGHBHD": null, "ROUTES": "G", "TRANSFERS": "G", "COLOR": "LIME", "EXPRESS": null, "CLOSED": null }, "geometry": { "type": "Point", "coordinates": [ -73.950221131522198, 40.705476828856099 ] } },
{ "type": "Feature", "properties": { "OBJECTID": 131.0, "ID": 456.0, "NAME": "Broadway Jct", "ALT_NAME": "Eastern Pky", "CROSS_ST": "Eastern Pky", "LONG_NAME": "Broadway Jct / Eastern Pky (J,Z) Brooklyn", "LABEL": "Broadway Jct / Eastern Pky (J,Z)", "BOROUGH": "Brooklyn", "NGHBHD": null, "ROUTES": "J,Z", "TRANSFERS": "A,C,J,L,Z", "COLOR": "BROWN", "EXPRESS": "express", "CLOSED": null }, "geometry": { "type": "Point", "coordinates": [ -73.905453001329533, 40.680070000140191 ] } },
{ "type": "Feature", "properties": { "OBJECTID": 132.0, "ID": 230.0, "NAME": "Broadway Jct", "ALT_NAME": "E New York", "CROSS_ST": "Fulton St", "LONG_NAME": "Broadway Jct / E New York (A,C) Brooklyn", "LABEL": "Broadway Jct / E New York (A,C)", "BOROUGH": "Brooklyn", "NGHBHD": null, "ROUTES": "A,C", "TRANSFERS": "A,C,J,L,Z", "COLOR": "BLUE", "EXPRESS": "express", "CLOSED": null }, "geometry": { "type": "Point", "coordinates": [ -73.901558083100269, 40.677394845577844 ] } },
{ "type": "Feature", "properties": { "OBJECTID": 133.0, "ID": 455.0, "NAME": "Bushwick Ave", "ALT_NAME": "Aberdeen St", "CROSS_ST": "Aberdeen St", "LONG_NAME": "Bushwick Ave / Aberdeen St (L) Brooklyn", "LABEL": "Bushwick Ave / Aberdeen St (L)", "BOROUGH": "Brooklyn", "NGHBHD": null, "ROUTES": "L", "TRANSFERS": "L", "COLOR": "GREY", "EXPRESS": null, "CLOSED": null }, "geometry": { "type": "Point", "coordinates": [ -73.905116999610755, 40.682876001198792 ] } },
{ "type": "Feature", "properties": { "OBJECTID": 134.0, "ID": 340.0, "NAME": "Carroll St", "ALT_NAME": null, "CROSS_ST": "Smith St", "LONG_NAME": "Carroll St (F,G) Brooklyn", "LABEL": "Carroll St (F,G)", "BOROUGH": "Brooklyn", "NGHBHD": null, "ROUTES": "F,G", "TRANSFERS": "F,G", "COLOR": "ORANGE-LIME", "EXPRESS": null, "CLOSED": null }, "geometry": { "type": "Point", "coordinates": [ -73.994901000712062, 40.68022100102241 ] } },
{ "type": "Feature", "properties": { "OBJECTID": 135.0, "ID": 332.0, "NAME": "Central Ave", "ALT_NAME": null, "CROSS_ST": "Myrtle Ave", "LONG_NAME": "Central Ave (M) Brooklyn", "LABEL": "Central Ave (M)", "BOROUGH": "Brooklyn", "NGHBHD": null, "ROUTES": "M", "TRANSFERS": "M", "COLOR": "BROWN", "EXPRESS": null, "CLOSED": null }, "geometry": { "type": "Point", "coordinates": [ -73.925149148750819, 40.698094498895145 ] } },
{ "type": "Feature", "properties": { "OBJECTID": 136.0, "ID": 318.0, "NAME": "Chauncey St", "ALT_NAME": null, "CROSS_ST": "Broadway", "LONG_NAME": "Chauncey St (J,Z) Brooklyn", "LABEL": "Chauncey St (J,Z)", "BOROUGH": "Brooklyn", "NGHBHD": null, "ROUTES": "J,Z", "TRANSFERS": "J,Z", "COLOR": "BROWN", "EXPRESS": null, "CLOSED": null }, "geometry": { "type": "Point", "coordinates": [ -73.910116796240203, 40.682661760065841 ] } },
{ "type": "Feature", "properties": { "OBJECTID": 137.0, "ID": 346.0, "NAME": "Church Ave", "ALT_NAME": null, "CROSS_ST": "McDonald Ave", "LONG_NAME": "Church Ave (F) Brooklyn", "LABEL": "Church Ave (F)", "BOROUGH": "Brooklyn", "NGHBHD": null, "ROUTES": "F", "TRANSFERS": "F", "COLOR": "ORANGE", "EXPRESS": null, "CLOSED": null }, "geometry": { "type": "Point", "coordinates": [ -73.979432588859353, 40.642809843548648 ] } },
{ "type": "Feature", "properties": { "OBJECTID": 138.0, "ID": 387.0, "NAME": "Church Ave", "ALT_NAME": null, "CROSS_ST": "E 18th St", "LONG_NAME": "Church Ave (B,Q) Brooklyn", "LABEL": "Church Ave (B,Q)", "BOROUGH": "Brooklyn", "NGHBHD": null, "ROUTES": "B,Q", "TRANSFERS": "B,Q", "COLOR": "ORANGE-YELLOW", "EXPRESS": "express", "CLOSED": null }, "geometry": { "type": "Point", "coordinates": [ -73.963357989851673, 40.649335413931887 ] } },
{ "type": "Feature", "properties": { "OBJECTID": 139.0, "ID": 95.0, "NAME": "Church Ave", "ALT_NAME": null, "CROSS_ST": "Nostrand Ave", "LONG_NAME": "Church Ave (2,5) Brooklyn", "LABEL": "Church Ave (2,5)", "BOROUGH": "Brooklyn", "NGHBHD": null, "ROUTES": "2,5", "TRANSFERS": "2,5", "COLOR": "RED-GREEN", "EXPRESS": null, "CLOSED": null }, "geometry": { "type": "Point", "coordinates": [ -73.949582677558638, 40.650792667067016 ] } },
{ "type": "Feature", "properties": { "OBJECTID": 140.0, "ID": 73.0, "NAME": "Clark St", "ALT_NAME": null, "CROSS_ST": "Henry St", "LONG_NAME": "Clark St (2,3) Brooklyn", "LABEL": "Clark St (2,3)", "BOROUGH": "Brooklyn", "NGHBHD": null, "ROUTES": "2,3", "TRANSFERS": "2,3", "COLOR": "RED", "EXPRESS": "express", "CLOSED": null }, "geometry": { "type": "Point", "coordinates": [ -73.992999934177931, 40.697435154748163 ] } },
{ "type": "Feature", "properties": { "OBJECTID": 141.0, "ID": 281.0, "NAME": "Classon Ave", "ALT_NAME": null, "CROSS_ST": "Lafayette Ave", "LONG_NAME": "Classon Ave (G) Brooklyn", "LABEL": "Classon Ave (G)", "BOROUGH": "Brooklyn", "NGHBHD": null, "ROUTES": "G", "TRANSFERS": "G", "COLOR": "LIME", "EXPRESS": null, "CLOSED": null }, "geometry": { "type": "Point", "coordinates": [ -73.959990000875507, 40.688888999639715 ] } },
{ "type": "Feature", "properties": { "OBJECTID": 142.0, "ID": 322.0, "NAME": "Cleveland St", "ALT_NAME": null, "CROSS_ST": "Fulton St", "LONG_NAME": "Cleveland St (J) Brooklyn", "LABEL": "Cleveland St (J)", "BOROUGH": "Brooklyn", "NGHBHD": null, "ROUTES": "J", "TRANSFERS": "J", "COLOR": "BROWN", "EXPRESS": null, "CLOSED": null }, "geometry": { "type": "Point", "coordinates": [ -73.885553207083007, 40.679663441686614 ] } },
{ "type": "Feature", "properties": { "OBJECTID": 143.0, "ID": 280.0, "NAME": "Clinton Ave", "ALT_NAME": "Washington Ave", "CROSS_ST": "Lafayette Ave", "LONG_NAME": "Clinton Ave / Washington Ave (G) Brooklyn", "LABEL": "Clinton Ave / Washington Ave (G)", "BOROUGH": "Brooklyn", "NGHBHD": null, "ROUTES": "G", "TRANSFERS": "G", "COLOR": "LIME", "EXPRESS": null, "CLOSED": null }, "geometry": { "type": "Point", "coordinates": [ -73.966832313483863, 40.688088302447248 ] } },
{ "type": "Feature", "properties": { "OBJECTID": 144.0, "ID": 223.0, "NAME": "Clinton Ave", "ALT_NAME": "Washington Ave", "CROSS_ST": "Fulton St", "LONG_NAME": "Clinton Ave / Washington Ave (C) Brooklyn", "LABEL": "Clinton Ave / Washington Ave (C)", "BOROUGH": "Brooklyn", "NGHBHD": null, "ROUTES": "C", "TRANSFERS": "C", "COLOR": "BLUE", "EXPRESS": null, "CLOSED": null }, "geometry": { "type": "Point", "coordinates": [ -73.965849378265276, 40.683245456661922 ] } },
{ "type": "Feature", "properties": { "OBJECTID": 145.0, "ID": 389.0, "NAME": "Cortelyou Rd", "ALT_NAME": null, "CROSS_ST": "E 16th St", "LONG_NAME": "Cortelyou Rd (Q) Brooklyn", "LABEL": "Cortelyou Rd (Q)", "BOROUGH": "Brooklyn", "NGHBHD": null, "ROUTES": "Q", "TRANSFERS": "Q", "COLOR": "YELLOW", "EXPRESS": null, "CLOSED": null }, "geometry": { "type": "Point", "coordinates": [ -73.963987397581008, 40.641402654518714 ] } },
{ "type": "Feature", "properties": { "OBJECTID": 146.0, "ID": 379.0, "NAME": "Court St", "ALT_NAME": "Borough Hall", "CROSS_ST": "Montague St", "LONG_NAME": "Court St / Borough Hall (M,R) Brooklyn", "LABEL": "Court St / Borough Hall (M,R)", "BOROUGH": "Brooklyn", "NGHBHD": null, "ROUTES": "M,R", "TRANSFERS": "M,R,2,3,4,5", "COLOR": "BROWN-YELLOW", "EXPRESS": null, "CLOSED": null }, "geometry": { "type": "Point", "coordinates": [ -73.990454000750887, 40.693736999101759 ] } },
{ "type": "Feature", "properties": { "OBJECTID": 147.0, "ID": 324.0, "NAME": "Crescent St", "ALT_NAME": null, "CROSS_ST": "Fulton St", "LONG_NAME": "Crescent St (J,Z) Brooklyn", "LABEL": "Crescent St (J,Z)", "BOROUGH": "Brooklyn", "NGHBHD": null, "ROUTES": "J,Z", "TRANSFERS": "J,Z", "COLOR": "BROWN", "EXPRESS": "express", "CLOSED": null }, "geometry": { "type": "Point", "coordinates": [ -73.872397471993722, 40.683732278720747 ] } },
{ "type": "Feature", "properties": { "OBJECTID": 148.0, "ID": 325.0, "NAME": "Cypress Hills", "ALT_NAME": null, "CROSS_ST": "Jamaica Ave", "LONG_NAME": "Cypress Hills (J) Brooklyn", "LABEL": "Cypress Hills (J)", "BOROUGH": "Brooklyn", "NGHBHD": null, "ROUTES": "J", "TRANSFERS": "J", "COLOR": "BROWN", "EXPRESS": null, "CLOSED": null }, "geometry": { "type": "Point", "coordinates": [ -73.873875999661564, 40.689261000437639 ] } },
{ "type": "Feature", "properties": { "OBJECTID": 149.0, "ID": 451.0, "NAME": "DeKalb Ave", "ALT_NAME": null, "CROSS_ST": "Wyckoff Ave", "LONG_NAME": "DeKalb Ave (L) Brooklyn", "LABEL": "DeKalb Ave (L)", "BOROUGH": "Brooklyn", "NGHBHD": null, "ROUTES": "L", "TRANSFERS": "L", "COLOR": "GREY", "EXPRESS": null, "CLOSED": null }, "geometry": { "type": "Point", "coordinates": [ -73.919217147409128, 40.704318144549084 ] } },
{ "type": "Feature", "properties": { "OBJECTID": 150.0, "ID": 382.0, "NAME": "DeKalb Ave", "ALT_NAME": null, "CROSS_ST": "Flatbush Ave", "LONG_NAME": "DeKalb Ave (B,M,Q,R) Brooklyn", "LABEL": "DeKalb Ave (B,M,Q,R)", "BOROUGH": "Brooklyn", "NGHBHD": null, "ROUTES": "B,M,Q,R", "TRANSFERS": "B,M,Q,R", "COLOR": "MULTI", "EXPRESS": "express", "CLOSED": null }, "geometry": { "type": "Point", "coordinates": [ -73.981476128323365, 40.689927380841404 ] } },
{ "type": "Feature", "properties": { "OBJECTID": 151.0, "ID": 347.0, "NAME": "Ditmas Ave", "ALT_NAME": null, "CROSS_ST": "McDonald Ave", "LONG_NAME": "Ditmas Ave (F) Brooklyn", "LABEL": "Ditmas Ave (F)", "BOROUGH": "Brooklyn", "NGHBHD": null, "ROUTES": "F", "TRANSFERS": "F", "COLOR": "ORANGE", "EXPRESS": null, "CLOSED": null }, "geometry": { "type": "Point", "coordinates": [ -73.978073298705468, 40.635549089686585 ] } },
{ "type": "Feature", "properties": { "OBJECTID": 152.0, "ID": 461.0, "NAME": "E 105th St", "ALT_NAME": null, "CROSS_ST": "Turnbull Ave", "LONG_NAME": "E 105th St (L) Brooklyn", "LABEL": "E 105th St (L)", "BOROUGH": "Brooklyn", "NGHBHD": null, "ROUTES": "L", "TRANSFERS": "L", "COLOR": "GREY", "EXPRESS": null, "CLOSED": null }, "geometry": { "type": "Point", "coordinates": [ -73.899032000591134, 40.651331000496491 ] } },
{ "type": "Feature", "properties": { "OBJECTID": 153.0, "ID": 80.0, "NAME": "Eastern Pky", "ALT_NAME": "Brooklyn Museum", "CROSS_ST": "Washington Ave", "LONG_NAME": "Eastern Pky / Brooklyn Museum (2,3) Brooklyn", "LABEL": "Eastern Pky / Brooklyn Museum (2,3)", "BOROUGH": "Brooklyn", "NGHBHD": null, "ROUTES": "2,3", "TRANSFERS": "2,3", "COLOR": "RED-GREEN", "EXPRESS": null, "CLOSED": null }, "geometry": { "type": "Point", "coordinates": [ -73.96269247561861, 40.671647818526395 ] } },
{ "type": "Feature", "properties": { "OBJECTID": 154.0, "ID": 234.0, "NAME": "Euclid Ave", "ALT_NAME": null, "CROSS_ST": "Pitkin Ave", "LONG_NAME": "Euclid Ave (A,C) Brooklyn", "LABEL": "Euclid Ave (A,C)", "BOROUGH": "Brooklyn", "NGHBHD": null, "ROUTES": "A,C", "TRANSFERS": "A,C", "COLOR": "BLUE", "EXPRESS": "express", "CLOSED": null }, "geometry": { "type": "Point", "coordinates": [ -73.871903319517841, 40.675399112370627 ] } },
{ "type": "Feature", "properties": { "OBJECTID": 155.0, "ID": 98.0, "NAME": "Flatbush Ave", "ALT_NAME": "Brooklyn College", "CROSS_ST": "Nostrand Ave", "LONG_NAME": "Flatbush Ave / Brooklyn College (2,5) Brooklyn", "LABEL": "Flatbush Ave / Brooklyn College (2,5)", "BOROUGH": "Brooklyn", "NGHBHD": null, "ROUTES": "2,5", "TRANSFERS": "2,5", "COLOR": "RED-GREEN", "EXPRESS": null, "CLOSED": null }, "geometry": { "type": "Point", "coordinates": [ -73.947642000349376, 40.632835999878104 ] } },
{ "type": "Feature", "properties": { "OBJECTID": 156.0, "ID": 313.0, "NAME": "Flushing Ave", "ALT_NAME": null, "CROSS_ST": "Broadway", "LONG_NAME": "Flushing Ave (J,M) Brooklyn", "LABEL": "Flushing Ave (J,M)", "BOROUGH": "Brooklyn", "NGHBHD": null, "ROUTES": "J,M", "TRANSFERS": "J,M", "COLOR": "BROWN", "EXPRESS": null, "CLOSED": null }, "geometry": { "type": "Point", "coordinates": [ -73.941950755831712, 40.700722126483164 ] } },
{ "type": "Feature", "properties": { "OBJECTID": 157.0, "ID": 284.0, "NAME": "Flushing Ave", "ALT_NAME": null, "CROSS_ST": "Marcy Ave", "LONG_NAME": "Flushing Ave (G) Brooklyn", "LABEL": "Flushing Ave (G)", "BOROUGH": "Brooklyn", "NGHBHD": null, "ROUTES": "G", "TRANSFERS": "G", "COLOR": "LIME", "EXPRESS": null, "CLOSED": null }, "geometry": { "type": "Point", "coordinates": [ -73.950121110525629, 40.699775266246306 ] } },
{ "type": "Feature", "properties": { "OBJECTID": 158.0, "ID": 345.0, "NAME": "Fort Hamilton Pky", "ALT_NAME": null, "CROSS_ST": "Prospect Ave", "LONG_NAME": "Fort Hamilton Pky (F) Brooklyn", "LABEL": "Fort Hamilton Pky (F)", "BOROUGH": "Brooklyn", "NGHBHD": null, "ROUTES": "F", "TRANSFERS": "F", "COLOR": "ORANGE", "EXPRESS": null, "CLOSED": null }, "geometry": { "type": "Point", "coordinates": [ -73.975866998081429, 40.64952500031329 ] } },
{ "type": "Feature", "properties": { "OBJECTID": 159.0, "ID": 224.0, "NAME": "Franklin Ave", "ALT_NAME": null, "CROSS_ST": "Fulton St", "LONG_NAME": "Franklin Ave (C) Brooklyn", "LABEL": "Franklin Ave (C)", "BOROUGH": "Brooklyn", "NGHBHD": null, "ROUTES": "C", "TRANSFERS": "C,S", "COLOR": "BLUE", "EXPRESS": null, "CLOSED": null }, "geometry": { "type": "Point", "coordinates": [ -73.955665607478622, 40.681134648756597 ] } },
{ "type": "Feature", "properties": { "OBJECTID": 160.0, "ID": 438.0, "NAME": "Franklin Ave", "ALT_NAME": null, "CROSS_ST": "Fulton St", "LONG_NAME": "Franklin Ave (S) Brooklyn", "LABEL": "Franklin Ave (S)", "BOROUGH": "Brooklyn", "NGHBHD": null, "ROUTES": "S", "TRANSFERS": "C,S", "COLOR": "GREY", "EXPRESS": null, "CLOSED": null }, "geometry": { "type": "Point", "coordinates": [ -73.955639484074069, 40.681033359807259 ] } },
{ "type": "Feature", "properties": { "OBJECTID": 161.0, "ID": 81.0, "NAME": "Franklin Ave", "ALT_NAME": null, "CROSS_ST": "Eastern Pky", "LONG_NAME": "Franklin Ave (2,3,4,5) Brooklyn", "LABEL": "Franklin Ave (2,3,4,5)", "BOROUGH": "Brooklyn", "NGHBHD": null, "ROUTES": "2,3,4,5", "TRANSFERS": "S,2,3,4,5", "COLOR": "GREEN-RED", "EXPRESS": "express", "CLOSED": null }, "geometry": { "type": "Point", "coordinates": [ -73.957931771071003, 40.670632238770786 ] } },
{ "type": "Feature", "properties": { "OBJECTID": 162.0, "ID": 428.0, "NAME": "Ft Hamilton Pky", "ALT_NAME": null, "CROSS_ST": "62nd St", "LONG_NAME": "Ft Hamilton Pky (N) Brooklyn", "LABEL": "Ft Hamilton Pky (N)", "BOROUGH": "Brooklyn", "NGHBHD": null, "ROUTES": "N", "TRANSFERS": "N", "COLOR": "YELLOW", "EXPRESS": null, "CLOSED": null }, "geometry": { "type": "Point", "coordinates": [ -74.006739765830289, 40.632266114207944 ] } },
{ "type": "Feature", "properties": { "OBJECTID": 163.0, "ID": 416.0, "NAME": "Ft Hamilton Pky", "ALT_NAME": null, "CROSS_ST": "New Utrecht Ave", "LONG_NAME": "Ft Hamilton Pky (D,M) Brooklyn", "LABEL": "Ft Hamilton Pky (D,M)", "BOROUGH": "Brooklyn", "NGHBHD": null, "ROUTES": "D,M", "TRANSFERS": "D,M", "COLOR": "BROWN-ORANGE", "EXPRESS": null, "CLOSED": null }, "geometry": { "type": "Point", "coordinates": [ -73.994306421198999, 40.640609850454652 ] } },
{ "type": "Feature", "properties": { "OBJECTID": 164.0, "ID": 279.0, "NAME": "Fulton St", "ALT_NAME": null, "CROSS_ST": "Lafayette Ave", "LONG_NAME": "Fulton St (G) Brooklyn", "LABEL": "Fulton St (G)", "BOROUGH": "Brooklyn", "NGHBHD": null, "ROUTES": "G", "TRANSFERS": "G", "COLOR": "LIME", "EXPRESS": null, "CLOSED": null }, "geometry": { "type": "Point", "coordinates": [ -73.976219367989728, 40.687027495774039 ] } },
{ "type": "Feature", "properties": { "OBJECTID": 165.0, "ID": 316.0, "NAME": "Gates St", "ALT_NAME": null, "CROSS_ST": "Broadway", "LONG_NAME": "Gates St (J,Z) Brooklyn", "LABEL": "Gates St (J,Z)", "BOROUGH": "Brooklyn", "NGHBHD": null, "ROUTES": "J,Z", "TRANSFERS": "J,Z", "COLOR": "BROWN", "EXPRESS": null, "CLOSED": null }, "geometry": { "type": "Point", "coordinates": [ -73.922044715421706, 40.689519149502715 ] } },
{ "type": "Feature", "properties": { "OBJECTID": 166.0, "ID": 446.0, "NAME": "Graham Ave", "ALT_NAME": null, "CROSS_ST": "Metropolitan Ave", "LONG_NAME": "Graham Ave (L) Brooklyn", "LABEL": "Graham Ave (L)", "BOROUGH": "Brooklyn", "NGHBHD": null, "ROUTES": "L", "TRANSFERS": "L", "COLOR": "GREY", "EXPRESS": null, "CLOSED": null }, "geometry": { "type": "Point", "coordinates": [ -73.944399416262954, 40.71453004758235 ] } },
{ "type": "Feature", "properties": { "OBJECTID": 167.0, "ID": 79.0, "NAME": "Grand Army Plz", "ALT_NAME": null, "CROSS_ST": "Flatbush Ave", "LONG_NAME": "Grand Army Plz (2,3) Brooklyn", "LABEL": "Grand Army Plz (2,3)", "BOROUGH": "Brooklyn", "NGHBHD": null, "ROUTES": "2,3", "TRANSFERS": "2,3", "COLOR": "RED-GREEN", "EXPRESS": null, "CLOSED": null }, "geometry": { "type": "Point", "coordinates": [ -73.970463878128569, 40.674634981096794 ] } },
{ "type": "Feature", "properties": { "OBJECTID": 168.0, "ID": 447.0, "NAME": "Grand St", "ALT_NAME": null, "CROSS_ST": "Bushwick Ave", "LONG_NAME": "Grand St (L) Brooklyn", "LABEL": "Grand St (L)", "BOROUGH": "Brooklyn", "NGHBHD": null, "ROUTES": "L", "TRANSFERS": "L", "COLOR": "GREY", "EXPRESS": null, "CLOSED": null }, "geometry": { "type": "Point", "coordinates": [ -73.940687831990857, 40.711951946770363 ] } },
{ "type": "Feature", "properties": { "OBJECTID": 169.0, "ID": 235.0, "NAME": "Grant Ave", "ALT_NAME": null, "CROSS_ST": "Pitkin Ave", "LONG_NAME": "Grant Ave (A) Brooklyn", "LABEL": "Grant Ave (A)", "BOROUGH": "Brooklyn", "NGHBHD": null, "ROUTES": "A", "TRANSFERS": "A", "COLOR": "BLUE", "EXPRESS": null, "CLOSED": null }, "geometry": { "type": "Point", "coordinates": [ -73.865547359765827, 40.676691952929367 ] } },
{ "type": "Feature", "properties": { "OBJECTID": 170.0, "ID": 288.0, "NAME": "Greenpoint Ave", "ALT_NAME": null, "CROSS_ST": "Manhattan Ave", "LONG_NAME": "Greenpoint Ave (G) Brooklyn", "LABEL": "Greenpoint Ave (G)", "BOROUGH": "Brooklyn", "NGHBHD": null, "ROUTES": "G", "TRANSFERS": "G", "COLOR": "LIME", "EXPRESS": null, "CLOSED": null }, "geometry": { "type": "Point", "coordinates": [ -73.954240999094111, 40.730199000123996 ] } },
{ "type": "Feature", "properties": { "OBJECTID": 171.0, "ID": 453.0, "NAME": "Halsey St", "ALT_NAME": null, "CROSS_ST": "Wyckoff Ave", "LONG_NAME": "Halsey St (L) Brooklyn", "LABEL": "Halsey St (L)", "BOROUGH": "Brooklyn", "NGHBHD": null, "ROUTES": "L", "TRANSFERS": "L", "COLOR": "GREY", "EXPRESS": null, "CLOSED": null }, "geometry": { "type": "Point", "coordinates": [ -73.905006692877137, 40.696122071423147 ] } },
{ "type": "Feature", "properties": { "OBJECTID": 172.0, "ID": 317.0, "NAME": "Halsey St", "ALT_NAME": null, "CROSS_ST": "Broadway", "LONG_NAME": "Halsey St (J) Brooklyn", "LABEL": "Halsey St (J)", "BOROUGH": "Brooklyn", "NGHBHD": null, "ROUTES": "J", "TRANSFERS": "J", "COLOR": "BROWN", "EXPRESS": null, "CLOSED": null }, "geometry": { "type": "Point", "coordinates": [ -73.915398145871507, 40.685708151955247 ] } },
{ "type": "Feature", "properties": { "OBJECTID": 173.0, "ID": 311.0, "NAME": "Hewes St", "ALT_NAME": null, "CROSS_ST": "Broadway", "LONG_NAME": "Hewes St (J,M) Brooklyn", "LABEL": "Hewes St (J,M)", "BOROUGH": "Brooklyn", "NGHBHD": null, "ROUTES": "J,M", "TRANSFERS": "J,M", "COLOR": "BROWN", "EXPRESS": null, "CLOSED": null }, "geometry": { "type": "Point", "coordinates": [ -73.952965482554745, 40.706706374100058 ] } },
{ "type": "Feature", "properties": { "OBJECTID": 174.0, "ID": 219.0, "NAME": "High St", "ALT_NAME": null, "CROSS_ST": "Cadman Plaza East", "LONG_NAME": "High St (A,C) Brooklyn", "LABEL": "High St (A,C)", "BOROUGH": "Brooklyn", "NGHBHD": null, "ROUTES": "A,C", "TRANSFERS": "A,C", "COLOR": "BLUE", "EXPRESS": "express", "CLOSED": null }, "geometry": { "type": "Point", "coordinates": [ -73.989854656384153, 40.699135268552233 ] } },
{ "type": "Feature", "properties": { "OBJECTID": 175.0, "ID": 75.0, "NAME": "Hoyt St", "ALT_NAME": null, "CROSS_ST": "Fulton Mall", "LONG_NAME": "Hoyt St (2,3) Brooklyn", "LABEL": "Hoyt St (2,3)", "BOROUGH": "Brooklyn", "NGHBHD": null, "ROUTES": "2,3", "TRANSFERS": "2,3", "COLOR": "RED", "EXPRESS": null, "CLOSED": null }, "geometry": { "type": "Point", "coordinates": [ -73.985105920268751, 40.690555262634241 ] } },
{ "type": "Feature", "properties": { "OBJECTID": 176.0, "ID": 221.0, "NAME": "Hoyt St", "ALT_NAME": "Schermerhorn St", "CROSS_ST": "Schermerhorn St", "LONG_NAME": "Hoyt St / Schermerhorn St (A,C,G) Brooklyn", "LABEL": "Hoyt St / Schermerhorn St (A,C,G)", "BOROUGH": "Brooklyn", "NGHBHD": null, "ROUTES": "A,C,G", "TRANSFERS": "A,C,G", "COLOR": "BLUE-LIME", "EXPRESS": "express", "CLOSED": null }, "geometry": { "type": "Point", "coordinates": [ -73.986154106043031, 40.689019674989346 ] } },
{ "type": "Feature", "properties": { "OBJECTID": 177.0, "ID": 220.0, "NAME": "Jay St", "ALT_NAME": "Borough Hall", "CROSS_ST": "Fulton Mall", "LONG_NAME": "Jay St / Borough Hall (A,C,F) Brooklyn", "LABEL": "Jay St / Borough Hall (A,C,F)", "BOROUGH": "Brooklyn", "NGHBHD": null, "ROUTES": "A,C,F", "TRANSFERS": "A,C,F", "COLOR": "BLUE-ORANGE", "EXPRESS": "express", "CLOSED": null }, "geometry": { "type": "Point", "coordinates": [ -73.987361899900748, 40.691464196121771 ] } },
{ "type": "Feature", "properties": { "OBJECTID": 178.0, "ID": 450.0, "NAME": "Jefferson St", "ALT_NAME": null, "CROSS_ST": "Wyckoff Ave", "LONG_NAME": "Jefferson St (L) Brooklyn", "LABEL": "Jefferson St (L)", "BOROUGH": "Brooklyn", "NGHBHD": null, "ROUTES": "L", "TRANSFERS": "L", "COLOR": "GREY", "EXPRESS": null, "CLOSED": null }, "geometry": { "type": "Point", "coordinates": [ -73.923576340769031, 40.707026133750354 ] } },
{ "type": "Feature", "properties": { "OBJECTID": 179.0, "ID": 88.0, "NAME": "Junius St", "ALT_NAME": null, "CROSS_ST": "Livonia Ave", "LONG_NAME": "Junius St (3) Brooklyn", "LABEL": "Junius St (3)", "BOROUGH": "Brooklyn", "NGHBHD": null, "ROUTES": "3", "TRANSFERS": "3", "COLOR": "RED-GREEN", "EXPRESS": null, "CLOSED": null }, "geometry": { "type": "Point", "coordinates": [ -73.901486736318915, 40.663657232256348 ] } },
{ "type": "Feature", "properties": { "OBJECTID": 180.0, "ID": 394.0, "NAME": "Kings Hwy", "ALT_NAME": null, "CROSS_ST": "E 16th St", "LONG_NAME": "Kings Hwy (B,Q) Brooklyn", "LABEL": "Kings Hwy (B,Q)", "BOROUGH": "Brooklyn", "NGHBHD": null, "ROUTES": "B,Q", "TRANSFERS": "B,Q", "COLOR": "ORANGE-YELLOW", "EXPRESS": "express", "CLOSED": null }, "geometry": { "type": "Point", "coordinates": [ -73.957754484494146, 40.608968783285782 ] } },
{ "type": "Feature", "properties": { "OBJECTID": 181.0, "ID": 433.0, "NAME": "Kings Hwy", "ALT_NAME": null, "CROSS_ST": "W 7th St", "LONG_NAME": "Kings Hwy (N) Brooklyn", "LABEL": "Kings Hwy (N)", "BOROUGH": "Brooklyn", "NGHBHD": null, "ROUTES": "N", "TRANSFERS": "N", "COLOR": "YELLOW", "EXPRESS": null, "CLOSED": null }, "geometry": { "type": "Point", "coordinates": [ -73.980573933157032, 40.605191186114844 ] } },
{ "type": "Feature", "properties": { "OBJECTID": 182.0, "ID": 353.0, "NAME": "Kings Hwy", "ALT_NAME": null, "CROSS_ST": "McDonald Ave", "LONG_NAME": "Kings Hwy (F) Brooklyn", "LABEL": "Kings Hwy (F)", "BOROUGH": "Brooklyn", "NGHBHD": null, "ROUTES": "F", "TRANSFERS": "F", "COLOR": "ORANGE", "EXPRESS": null, "CLOSED": null }, "geometry": { "type": "Point", "coordinates": [ -73.972180239439098, 40.604185090678584 ] } },
{ "type": "Feature", "properties": { "OBJECTID": 183.0, "ID": 83.0, "NAME": "Kingston Ave", "ALT_NAME": null, "CROSS_ST": "Eastern Pky", "LONG_NAME": "Kingston Ave (3) Brooklyn", "LABEL": "Kingston Ave (3)", "BOROUGH": "Brooklyn", "NGHBHD": null, "ROUTES": "3", "TRANSFERS": "3", "COLOR": "RED-GREEN", "EXPRESS": null, "CLOSED": null }, "geometry": { "type": "Point", "coordinates": [ -73.942116999550748, 40.669396998838138 ] } },
{ "type": "Feature", "properties": { "OBJECTID": 184.0, "ID": 226.0, "NAME": "Kingston-Throop Aves", "ALT_NAME": null, "CROSS_ST": "Fulton St", "LONG_NAME": "Kingston-Throop Aves (C) Brooklyn", "LABEL": "Kingston-Throop Aves (C)", "BOROUGH": "Brooklyn", "NGHBHD": null, "ROUTES": "C", "TRANSFERS": "C", "COLOR": "BLUE", "EXPRESS": null, "CLOSED": null }, "geometry": { "type": "Point", "coordinates": [ -73.940605998382523, 40.679899000405172 ] } },
{ "type": "Feature", "properties": { "OBJECTID": 185.0, "ID": 333.0, "NAME": "Knickerbocker Ave", "ALT_NAME": null, "CROSS_ST": "Myrtle Ave", "LONG_NAME": "Knickerbocker Ave (M) Brooklyn", "LABEL": "Knickerbocker Ave (M)", "BOROUGH": "Brooklyn", "NGHBHD": null, "ROUTES": "M", "TRANSFERS": "M", "COLOR": "BROWN", "EXPRESS": null, "CLOSED": null }, "geometry": { "type": "Point", "coordinates": [ -73.918347600247387, 40.698803715927987 ] } },
{ "type": "Feature", "properties": { "OBJECTID": 186.0, "ID": 315.0, "NAME": "Kosciusko St", "ALT_NAME": null, "CROSS_ST": "Broadway", "LONG_NAME": "Kosciusko St (J) Brooklyn", "LABEL": "Kosciusko St (J)", "BOROUGH": "Brooklyn", "NGHBHD": null, "ROUTES": "J", "TRANSFERS": "J", "COLOR": "BROWN", "EXPRESS": null, "CLOSED": null }, "geometry": { "type": "Point", "coordinates": [ -73.928576099465928, 40.69321181029288 ] } },
{ "type": "Feature", "properties": { "OBJECTID": 187.0, "ID": 222.0, "NAME": "Lafayette Ave", "ALT_NAME": null, "CROSS_ST": "Fulton St", "LONG_NAME": "Lafayette Ave (C) Brooklyn", "LABEL": "Lafayette Ave (C)", "BOROUGH": "Brooklyn", "NGHBHD": null, "ROUTES": "C", "TRANSFERS": "C", "COLOR": "BLUE", "EXPRESS": null, "CLOSED": null }, "geometry": { "type": "Point", "coordinates": [ -73.976303000019442, 40.686950000343806 ] } },
{ "type": "Feature", "properties": { "OBJECTID": 188.0, "ID": 380.0, "NAME": "Lawrence St", "ALT_NAME": "MetroTech", "CROSS_ST": "Willoughby St", "LONG_NAME": "Lawrence St / MetroTech (M,R) Brooklyn", "LABEL": "Lawrence St / MetroTech (M,R)", "BOROUGH": "Brooklyn", "NGHBHD": null, "ROUTES": "M,R", "TRANSFERS": "M,R", "COLOR": "BROWN-YELLOW", "EXPRESS": null, "CLOSED": null }, "geometry": { "type": "Point", "coordinates": [ -73.986265481397709, 40.692194104269689 ] } },
{ "type": "Feature", "properties": { "OBJECTID": 189.0, "ID": 231.0, "NAME": "Liberty Ave", "ALT_NAME": null, "CROSS_ST": "Pennsylvania Ave", "LONG_NAME": "Liberty Ave (C) Brooklyn", "LABEL": "Liberty Ave (C)", "BOROUGH": "Brooklyn", "NGHBHD": null, "ROUTES": "C", "TRANSFERS": "C", "COLOR": "BLUE", "EXPRESS": null, "CLOSED": null }, "geometry": { "type": "Point", "coordinates": [ -73.896500369445477, 40.674398326341347 ] } },
{ "type": "Feature", "properties": { "OBJECTID": 190.0, "ID": 459.0, "NAME": "Livonia Ave", "ALT_NAME": null, "CROSS_ST": "Van Sinderen Ave", "LONG_NAME": "Livonia Ave (L) Brooklyn", "LABEL": "Livonia Ave (L)", "BOROUGH": "Brooklyn", "NGHBHD": null, "ROUTES": "L", "TRANSFERS": "L", "COLOR": "GREY", "EXPRESS": null, "CLOSED": null }, "geometry": { "type": "Point", "coordinates": [ -73.900505001010316, 40.663777998747996 ] } },
{ "type": "Feature", "properties": { "OBJECTID": 191.0, "ID": 445.0, "NAME": "Lorimer St", "ALT_NAME": "Metropolitan Ave", "CROSS_ST": "Metropolitan Ave", "LONG_NAME": "Lorimer St / Metropolitan Ave (L) Brooklyn", "LABEL": "Lorimer St / Metropolitan Ave (L)", "BOROUGH": "Brooklyn", "NGHBHD": null, "ROUTES": "L", "TRANSFERS": "G,L", "COLOR": "GREY", "EXPRESS": null, "CLOSED": null }, "geometry": { "type": "Point", "coordinates": [ -73.949373118416176, 40.714065480193476 ] } },
{ "type": "Feature", "properties": { "OBJECTID": 192.0, "ID": 312.0, "NAME": "Lorimer St", "ALT_NAME": null, "CROSS_ST": "Broadway", "LONG_NAME": "Lorimer St (J,M) Brooklyn", "LABEL": "Lorimer St (J,M)", "BOROUGH": "Brooklyn", "NGHBHD": null, "ROUTES": "J,M", "TRANSFERS": "J,M", "COLOR": "BROWN", "EXPRESS": null, "CLOSED": null }, "geometry": { "type": "Point", "coordinates": [ -73.947863697058111, 40.704129348382459 ] } },
{ "type": "Feature", "properties": { "OBJECTID": 193.0, "ID": 310.0, "NAME": "Marcy Ave", "ALT_NAME": null, "CROSS_ST": "Broadway", "LONG_NAME": "Marcy Ave (J,M,Z) Brooklyn", "LABEL": "Marcy Ave (J,M,Z)", "BOROUGH": "Brooklyn", "NGHBHD": null, "ROUTES": "J,M,Z", "TRANSFERS": "J,M,Z", "COLOR": "BROWN", "EXPRESS": "express", "CLOSED": null }, "geometry": { "type": "Point", "coordinates": [ -73.957920087801668, 40.708408545441799 ] } },
{ "type": "Feature", "properties": { "OBJECTID": 194.0, "ID": 286.0, "NAME": "Metropolitan Ave", "ALT_NAME": "Lorimer St", "CROSS_ST": "Grand St", "LONG_NAME": "Metropolitan Ave / Lorimer St (G) Brooklyn", "LABEL": "Metropolitan Ave / Lorimer St (G)", "BOROUGH": "Brooklyn", "NGHBHD": null, "ROUTES": "G", "TRANSFERS": "G,L", "COLOR": "LIME", "EXPRESS": null, "CLOSED": null }, "geometry": { "type": "Point", "coordinates": [ -73.951423999545455, 40.712774000270358 ] } },
{ "type": "Feature", "properties": { "OBJECTID": 195.0, "ID": 448.0, "NAME": "Montrose Ave", "ALT_NAME": null, "CROSS_ST": "Bushwick Ave", "LONG_NAME": "Montrose Ave (L) Brooklyn", "LABEL": "Montrose Ave (L)", "BOROUGH": "Brooklyn", "NGHBHD": null, "ROUTES": "L", "TRANSFERS": "L", "COLOR": "GREY", "EXPRESS": null, "CLOSED": null }, "geometry": { "type": "Point", "coordinates": [ -73.939847747497652, 40.707650079850609 ] } },
{ "type": "Feature", "properties": { "OBJECTID": 196.0, "ID": 449.0, "NAME": "Morgan Ave", "ALT_NAME": null, "CROSS_ST": "Harrison Pl", "LONG_NAME": "Morgan Ave (L) Brooklyn", "LABEL": "Morgan Ave (L)", "BOROUGH": "Brooklyn", "NGHBHD": null, "ROUTES": "L", "TRANSFERS": "L", "COLOR": "GREY", "EXPRESS": null, "CLOSED": null }, "geometry": { "type": "Point", "coordinates": [ -73.931879285247163, 40.706339678724433 ] } },
{ "type": "Feature", "properties": { "OBJECTID": 197.0, "ID": 452.0, "NAME": "Myrtle Ave", "ALT_NAME": "Wyckoff Ave", "CROSS_ST": "Wyckoff Ave", "LONG_NAME": "Myrtle Ave / Wyckoff Ave (L) Brooklyn", "LABEL": "Myrtle Ave / Wyckoff Ave (L)", "BOROUGH": "Brooklyn", "NGHBHD": null, "ROUTES": "L", "TRANSFERS": "L,M", "COLOR": "GREY", "EXPRESS": null, "CLOSED": null }, "geometry": { "type": "Point", "coordinates": [ -73.911143597118397, 40.699561875979072 ] } },
{ "type": "Feature", "properties": { "OBJECTID": 198.0, "ID": 314.0, "NAME": "Myrtle Ave", "ALT_NAME": null, "CROSS_ST": "Broadway", "LONG_NAME": "Myrtle Ave (J,M,Z) Brooklyn", "LABEL": "Myrtle Ave (J,M,Z)", "BOROUGH": "Brooklyn", "NGHBHD": null, "ROUTES": "J,M,Z", "TRANSFERS": "J,M,Z", "COLOR": "BROWN", "EXPRESS": "express", "CLOSED": null }, "geometry": { "type": "Point", "coordinates": [ -73.935264130395154, 40.696979348660975 ] } },
{ "type": "Feature", "properties": { "OBJECTID": 199.0, "ID": 283.0, "NAME": "Myrtle Ave", "ALT_NAME": "Willoughby Ave", "CROSS_ST": "Marcy Ave", "LONG_NAME": "Myrtle Ave / Willoughby Ave (G) Brooklyn", "LABEL": "Myrtle Ave / Willoughby Ave (G)", "BOROUGH": "Brooklyn", "NGHBHD": null, "ROUTES": "G", "TRANSFERS": "G", "COLOR": "LIME", "EXPRESS": null, "CLOSED": null }, "geometry": { "type": "Point", "coordinates": [ -73.949067000272223, 40.694619000492558 ] } },
{ "type": "Feature", "properties": { "OBJECTID": 200.0, "ID": 287.0, "NAME": "Nassau Ave", "ALT_NAME": null, "CROSS_ST": "Manhattan Ave", "LONG_NAME": "Nassau Ave (G) Brooklyn", "LABEL": "Nassau Ave (G)", "BOROUGH": "Brooklyn", "NGHBHD": null, "ROUTES": "G", "TRANSFERS": "G", "COLOR": "LIME", "EXPRESS": null, "CLOSED": null }, "geometry": { "type": "Point", "coordinates": [ -73.950778141162814, 40.723773597686332 ] } },
{ "type": "Feature", "properties": { "OBJECTID": 201.0, "ID": 396.0, "NAME": "Neck Rd", "ALT_NAME": null, "CROSS_ST": "E 16th St", "LONG_NAME": "Neck Rd (Q) Brooklyn", "LABEL": "Neck Rd (Q)", "BOROUGH": "Brooklyn", "NGHBHD": null, "ROUTES": "Q", "TRANSFERS": "Q", "COLOR": "YELLOW", "EXPRESS": null, "CLOSED": null }, "geometry": { "type": "Point", "coordinates": [ -73.955107301880233, 40.594950673026695 ] } },
{ "type": "Feature", "properties": { "OBJECTID": 202.0, "ID": 356.0, "NAME": "Neptune Ave", "ALT_NAME": null, "CROSS_ST": null, "LONG_NAME": "Neptune Ave (F) Brooklyn", "LABEL": "Neptune Ave (F)", "BOROUGH": "Brooklyn", "NGHBHD": null, "ROUTES": "F", "TRANSFERS": "F", "COLOR": "ORANGE", "EXPRESS": null, "CLOSED": null }, "geometry": { "type": "Point", "coordinates": [ -73.974637983845938, 40.579981040314408 ] } },
{ "type": "Feature", "properties": { "OBJECTID": 203.0, "ID": 76.0, "NAME": "Nevins St", "ALT_NAME": null, "CROSS_ST": "Flatbush Ave", "LONG_NAME": "Nevins St (2,3,4,5) Brooklyn", "LABEL": "Nevins St (2,3,4,5)", "BOROUGH": "Brooklyn", "NGHBHD": null, "ROUTES": "2,3,4,5", "TRANSFERS": "2,3,4,5", "COLOR": "GREEN-RED", "EXPRESS": "express", "CLOSED": null }, "geometry": { "type": "Point", "coordinates": [ -73.98085100073915, 40.688724000114185 ] } },
{ "type": "Feature", "properties": { "OBJECTID": 204.0, "ID": 460.0, "NAME": "New Lots Ave", "ALT_NAME": null, "CROSS_ST": "Van Sinderen Ave", "LONG_NAME": "New Lots Ave (L) Brooklyn", "LABEL": "New Lots Ave (L)", "BOROUGH": "Brooklyn", "NGHBHD": null, "ROUTES": "L", "TRANSFERS": "L", "COLOR": "GREY", "EXPRESS": null, "CLOSED": null }, "geometry": { "type": "Point", "coordinates": [ -73.899319726745446, 40.659052651289322 ] } },
{ "type": "Feature", "properties": { "OBJECTID": 205.0, "ID": 91.0, "NAME": "New Lots Ave", "ALT_NAME": null, "CROSS_ST": "Livonia Ave", "LONG_NAME": "New Lots Ave (3) Brooklyn", "LABEL": "New Lots Ave (3)", "BOROUGH": "Brooklyn", "NGHBHD": null, "ROUTES": "3", "TRANSFERS": "3", "COLOR": "RED-GREEN", "EXPRESS": null, "CLOSED": null }, "geometry": { "type": "Point", "coordinates": [ -73.882534571882104, 40.666444881582542 ] } },
{ "type": "Feature", "properties": { "OBJECTID": 206.0, "ID": 429.0, "NAME": "New Utrecht Ave", "ALT_NAME": "62nd St", "CROSS_ST": "62nd St", "LONG_NAME": "New Utrecht Ave / 62nd St (N) Brooklyn", "LABEL": "New Utrecht Ave / 62nd St (N)", "BOROUGH": "Brooklyn", "NGHBHD": null, "ROUTES": "N", "TRANSFERS": "D,M,N", "COLOR": "YELLOW", "EXPRESS": null, "CLOSED": null }, "geometry": { "type": "Point", "coordinates": [ -73.99706700196657, 40.625843816795381 ] } },
{ "type": "Feature", "properties": { "OBJECTID": 207.0, "ID": 390.0, "NAME": "Newkirk Ave", "ALT_NAME": null, "CROSS_ST": "E 16th St", "LONG_NAME": "Newkirk Ave (B,Q) Brooklyn", "LABEL": "Newkirk Ave (B,Q)", "BOROUGH": "Brooklyn", "NGHBHD": null, "ROUTES": "B,Q", "TRANSFERS": "B,Q", "COLOR": "ORANGE-YELLOW", "EXPRESS": "express", "CLOSED": null }, "geometry": { "type": "Point", "coordinates": [ -73.962898266325979, 40.635729843160703 ] } },
{ "type": "Feature", "properties": { "OBJECTID": 208.0, "ID": 97.0, "NAME": "Newkirk Ave", "ALT_NAME": null, "CROSS_ST": "Nostrand Ave", "LONG_NAME": "Newkirk Ave (2,5) Brooklyn", "LABEL": "Newkirk Ave (2,5)", "BOROUGH": "Brooklyn", "NGHBHD": null, "ROUTES": "2,5", "TRANSFERS": "2,5", "COLOR": "RED-GREEN", "EXPRESS": null, "CLOSED": null }, "geometry": { "type": "Point", "coordinates": [ -73.948413999330782, 40.639983000464895 ] } },
{ "type": "Feature", "properties": { "OBJECTID": 209.0, "ID": 323.0, "NAME": "Norwood Ave", "ALT_NAME": null, "CROSS_ST": "Fulton St", "LONG_NAME": "Norwood Ave (J,Z) Brooklyn", "LABEL": "Norwood Ave (J,Z)", "BOROUGH": "Brooklyn", "NGHBHD": null, "ROUTES": "J,Z", "TRANSFERS": "J,Z", "COLOR": "BROWN", "EXPRESS": null, "CLOSED": null }, "geometry": { "type": "Point", "coordinates": [ -73.879121131258785, 40.681663466799158 ] } },
{ "type": "Feature", "properties": { "OBJECTID": 210.0, "ID": 225.0, "NAME": "Nostrand Ave", "ALT_NAME": null, "CROSS_ST": "Fulton St", "LONG_NAME": "Nostrand Ave (A,C) Brooklyn", "LABEL": "Nostrand Ave (A,C)", "BOROUGH": "Brooklyn", "NGHBHD": null, "ROUTES": "A,C", "TRANSFERS": "A,C", "COLOR": "BLUE", "EXPRESS": "express", "CLOSED": null }, "geometry": { "type": "Point", "coordinates": [ -73.949558052020322, 40.680391204456079 ] } },
{ "type": "Feature", "properties": { "OBJECTID": 211.0, "ID": 82.0, "NAME": "Nostrand Ave", "ALT_NAME": null, "CROSS_ST": "Eastern Pky", "LONG_NAME": "Nostrand Ave (3) Brooklyn", "LABEL": "Nostrand Ave (3)", "BOROUGH": "Brooklyn", "NGHBHD": null, "ROUTES": "3", "TRANSFERS": "3", "COLOR": "RED-GREEN", "EXPRESS": null, "CLOSED": null }, "geometry": { "type": "Point", "coordinates": [ -73.950488939032908, 40.66984852031139 ] } },
{ "type": "Feature", "properties": { "OBJECTID": 212.0, "ID": 399.0, "NAME": "Ocean Pkwy", "ALT_NAME": null, "CROSS_ST": null, "LONG_NAME": "Ocean Pkwy (Q) Brooklyn", "LABEL": "Ocean Pkwy (Q)", "BOROUGH": "Brooklyn", "NGHBHD": null, "ROUTES": "Q", "TRANSFERS": "Q", "COLOR": "YELLOW", "EXPRESS": null, "CLOSED": null }, "geometry": { "type": "Point", "coordinates": [ -73.968496314102893, 40.576308191019308 ] } },
{ "type": "Feature", "properties": { "OBJECTID": 213.0, "ID": 402.0, "NAME": "Pacific St", "ALT_NAME": "Brooklyn Academy of Music", "CROSS_ST": "4th Ave", "LONG_NAME": "Pacific St / Brooklyn Academy of Music (D,M,N,R) Brooklyn", "LABEL": "Pacific St / Brooklyn Academy of Music (D,M,N,R)", "BOROUGH": "Brooklyn", "NGHBHD": null, "ROUTES": "D,M,N,R", "TRANSFERS": "B,D,M,N,Q,R,2,3,4,5", "COLOR": "BROWN-ORANGE-YELLOW", "EXPRESS": "express", "CLOSED": null }, "geometry": { "type": "Point", "coordinates": [ -73.978748001172278, 40.683761001057192 ] } },
{ "type": "Feature", "properties": { "OBJECTID": 214.0, "ID": 437.0, "NAME": "Park Pl", "ALT_NAME": null, "CROSS_ST": "Classon Ave", "LONG_NAME": "Park Pl (S) Brooklyn", "LABEL": "Park Pl (S)", "BOROUGH": "Brooklyn", "NGHBHD": null, "ROUTES": "S", "TRANSFERS": "S", "COLOR": "GREY", "EXPRESS": null, "CLOSED": null }, "geometry": { "type": "Point", "coordinates": [ -73.957804523190461, 40.674399333214701 ] } },
{ "type": "Feature", "properties": { "OBJECTID": 215.0, "ID": 386.0, "NAME": "Parkside Ave", "ALT_NAME": null, "CROSS_ST": "Ocean Ave", "LONG_NAME": "Parkside Ave (Q) Brooklyn", "LABEL": "Parkside Ave (Q)", "BOROUGH": "Brooklyn", "NGHBHD": null, "ROUTES": "Q", "TRANSFERS": "Q", "COLOR": "YELLOW", "EXPRESS": null, "CLOSED": null }, "geometry": { "type": "Point", "coordinates": [ -73.961570369736435, 40.655002235588206 ] } },
{ "type": "Feature", "properties": { "OBJECTID": 216.0, "ID": 89.0, "NAME": "Pennsylvania Ave", "ALT_NAME": null, "CROSS_ST": "Livonia Ave", "LONG_NAME": "Pennsylvania Ave (3) Brooklyn", "LABEL": "Pennsylvania Ave (3)", "BOROUGH": "Brooklyn", "NGHBHD": null, "ROUTES": "3", "TRANSFERS": "3", "COLOR": "RED-GREEN", "EXPRESS": null, "CLOSED": null }, "geometry": { "type": "Point", "coordinates": [ -73.894104132813652, 40.664764433057137 ] } },
{ "type": "Feature", "properties": { "OBJECTID": 217.0, "ID": 92.0, "NAME": "President St", "ALT_NAME": null, "CROSS_ST": "Nostrand Ave", "LONG_NAME": "President St (2,5) Brooklyn", "LABEL": "President St (2,5)", "BOROUGH": "Brooklyn", "NGHBHD": null, "ROUTES": "2,5", "TRANSFERS": "2,5", "COLOR": "RED-GREEN", "EXPRESS": null, "CLOSED": null }, "geometry": { "type": "Point", "coordinates": [ -73.950656799067744, 40.668057058985767 ] } },
{ "type": "Feature", "properties": { "OBJECTID": 218.0, "ID": 405.0, "NAME": "Prospect Ave", "ALT_NAME": null, "CROSS_ST": "4th Ave", "LONG_NAME": "Prospect Ave (M,R) Brooklyn", "LABEL": "Prospect Ave (M,R)", "BOROUGH": "Brooklyn", "NGHBHD": null, "ROUTES": "M,R", "TRANSFERS": "M,R", "COLOR": "BROWN-YELLOW", "EXPRESS": null, "CLOSED": null }, "geometry": { "type": "Point", "coordinates": [ -73.992881766678636, 40.665393579152635 ] } },
{ "type": "Feature", "properties": { "OBJECTID": 219.0, "ID": 385.0, "NAME": "Prospect Park", "ALT_NAME": null, "CROSS_ST": "Empire Blvd", "LONG_NAME": "Prospect Park (B,Q,S) Brooklyn", "LABEL": "Prospect Park (B,Q,S)", "BOROUGH": "Brooklyn", "NGHBHD": null, "ROUTES": "B,Q,S", "TRANSFERS": "B,Q,S", "COLOR": "MULTI", "EXPRESS": "express", "CLOSED": null }, "geometry": { "type": "Point", "coordinates": [ -73.962464001036651, 40.663184000319781 ] } },
{ "type": "Feature", "properties": { "OBJECTID": 220.0, "ID": 228.0, "NAME": "Ralph Ave", "ALT_NAME": null, "CROSS_ST": "Fulton St", "LONG_NAME": "Ralph Ave (C) Brooklyn", "LABEL": "Ralph Ave (C)", "BOROUGH": "Brooklyn", "NGHBHD": null, "ROUTES": "C", "TRANSFERS": "C", "COLOR": "BLUE", "EXPRESS": null, "CLOSED": null }, "geometry": { "type": "Point", "coordinates": [ -73.92165316456483, 40.678864735221168 ] } },
{ "type": "Feature", "properties": { "OBJECTID": 221.0, "ID": 229.0, "NAME": "Rockaway Ave", "ALT_NAME": null, "CROSS_ST": "Fulton St", "LONG_NAME": "Rockaway Ave (C) Brooklyn", "LABEL": "Rockaway Ave (C)", "BOROUGH": "Brooklyn", "NGHBHD": null, "ROUTES": "C", "TRANSFERS": "C", "COLOR": "BLUE", "EXPRESS": null, "CLOSED": null }, "geometry": { "type": "Point", "coordinates": [ -73.910791927539265, 40.678269685761933 ] } },
{ "type": "Feature", "properties": { "OBJECTID": 222.0, "ID": 87.0, "NAME": "Rockaway Ave", "ALT_NAME": null, "CROSS_ST": "Livonia Ave", "LONG_NAME": "Rockaway Ave (3) Brooklyn", "LABEL": "Rockaway Ave (3)", "BOROUGH": "Brooklyn", "NGHBHD": null, "ROUTES": "3", "TRANSFERS": "3", "COLOR": "RED-GREEN", "EXPRESS": null, "CLOSED": null }, "geometry": { "type": "Point", "coordinates": [ -73.908866178907701, 40.662563701950212 ] } },
{ "type": "Feature", "properties": { "OBJECTID": 223.0, "ID": 462.0, "NAME": "Rockaway Pky", "ALT_NAME": "Canarsie", "CROSS_ST": "Glenwood Rd", "LONG_NAME": "Rockaway Pky / Canarsie (L) Brooklyn", "LABEL": "Rockaway Pky / Canarsie (L)", "BOROUGH": "Brooklyn", "NGHBHD": null, "ROUTES": "L", "TRANSFERS": "L", "COLOR": "GREY", "EXPRESS": null, "CLOSED": null }, "geometry": { "type": "Point", "coordinates": [ -73.902591449451634, 40.645414261061973 ] } },
{ "type": "Feature", "properties": { "OBJECTID": 224.0, "ID": 86.0, "NAME": "Saratoga Ave", "ALT_NAME": null, "CROSS_ST": "Livonia Ave", "LONG_NAME": "Saratoga Ave (3) Brooklyn", "LABEL": "Saratoga Ave (3)", "BOROUGH": "Brooklyn", "NGHBHD": null, "ROUTES": "3", "TRANSFERS": "3", "COLOR": "RED-GREEN", "EXPRESS": null, "CLOSED": null }, "geometry": { "type": "Point", "coordinates": [ -73.915547519187058, 40.661556946379598 ] } },
{ "type": "Feature", "properties": { "OBJECTID": 225.0, "ID": 397.0, "NAME": "Sheepshead Bay", "ALT_NAME": null, "CROSS_ST": "E 16th St", "LONG_NAME": "Sheepshead Bay (B,Q) Brooklyn", "LABEL": "Sheepshead Bay (B,Q)", "BOROUGH": "Brooklyn", "NGHBHD": null, "ROUTES": "B,Q", "TRANSFERS": "B,Q", "COLOR": "ORANGE-YELLOW", "EXPRESS": "express", "CLOSED": null }, "geometry": { "type": "Point", "coordinates": [ -73.954136801040917, 40.587346562173067 ] } },
{ "type": "Feature", "properties": { "OBJECTID": 226.0, "ID": 233.0, "NAME": "Shepherd Ave", "ALT_NAME": null, "CROSS_ST": "Pitkin Ave", "LONG_NAME": "Shepherd Ave (C) Brooklyn", "LABEL": "Shepherd Ave (C)", "BOROUGH": "Brooklyn", "NGHBHD": null, "ROUTES": "C", "TRANSFERS": "C", "COLOR": "BLUE", "EXPRESS": null, "CLOSED": null }, "geometry": { "type": "Point", "coordinates": [ -73.880793999184036, 40.674115999254226 ] } },
{ "type": "Feature", "properties": { "OBJECTID": 227.0, "ID": 341.0, "NAME": "Smith St", "ALT_NAME": "9th St", "CROSS_ST": "9th St", "LONG_NAME": "Smith St / 9th St (F,G) Brooklyn", "LABEL": "Smith St / 9th St (F,G)", "BOROUGH": "Brooklyn", "NGHBHD": null, "ROUTES": "F,G", "TRANSFERS": "F,G", "COLOR": "ORANGE-LIME", "EXPRESS": null, "CLOSED": null }, "geometry": { "type": "Point", "coordinates": [ -73.996848757440517, 40.674279296251555 ] } },
{ "type": "Feature", "properties": { "OBJECTID": 228.0, "ID": 93.0, "NAME": "Sterling St", "ALT_NAME": null, "CROSS_ST": "Nostrand Ave", "LONG_NAME": "Sterling St (2,5) Brooklyn", "LABEL": "Sterling St (2,5)", "BOROUGH": "Brooklyn", "NGHBHD": null, "ROUTES": "2,5", "TRANSFERS": "2,5", "COLOR": "RED-GREEN", "EXPRESS": null, "CLOSED": null }, "geometry": { "type": "Point", "coordinates": [ -73.950884696752382, 40.663109861844973 ] } },
{ "type": "Feature", "properties": { "OBJECTID": 229.0, "ID": 458.0, "NAME": "Sutter Ave", "ALT_NAME": null, "CROSS_ST": "Van Sinderen Ave", "LONG_NAME": "Sutter Ave (L) Brooklyn", "LABEL": "Sutter Ave (L)", "BOROUGH": "Brooklyn", "NGHBHD": null, "ROUTES": "L", "TRANSFERS": "L", "COLOR": "GREY", "EXPRESS": null, "CLOSED": null }, "geometry": { "type": "Point", "coordinates": [ -73.901735000692781, 40.668417999356386 ] } },