{
"type": "FeatureCollection",
"name": "villageaide6",
"crs": { "type": "name", "properties": { "name": "urn:ogc:def:crs:OGC:1.3:CRS84" } },
"features": [
{ "type": "Feature", "properties": { "Name": "Khmiss Tisguine", "description": "Région Marrakech- Safi<br>0630317228", "timestamp": null, "begin": null, "end": null, "altitudeMode": null, "tessellate": -1, "extrude": 0, "visibility": -1, "drawOrder": null, "icon": null, "gx_media_links": null }, "geometry": { "type": "Point", "coordinates": [ -8.318939, 31.244565, 0.0 ] } },
{ "type": "Feature", "properties": { "Name": "Tizi n' Test", "description": "Région Marrakech-Safi  <br> 0626005211  <br>0661832387 <br>0678759392", "timestamp": null, "begin": null, "end": null, "altitudeMode": null, "tessellate": -1, "extrude": 0, "visibility": -1, "drawOrder": null, "icon": null, "gx_media_links": null }, "geometry": { "type": "Point", "coordinates": [ -8.378056, 30.864722, 0.0 ] } },
{ "type": "Feature", "properties": { "Name": "Aghbar", "description": "Région Marrakech-Safi<br>0618128084", "timestamp": null, "begin": null, "end": null, "altitudeMode": null, "tessellate": -1, "extrude": 0, "visibility": -1, "drawOrder": null, "icon": null, "gx_media_links": null }, "geometry": { "type": "Point", "coordinates": [ -8.405211, 30.903713, 0.0 ] } },
{ "type": "Feature", "properties": { "Name": "Ijoukak‏‏", "description": "Région Marrakech-Safi      <br>          0654136616                         0716078625 <br>0680831475 <br>    0688565326‏‏", "timestamp": null, "begin": null, "end": null, "altitudeMode": null, "tessellate": -1, "extrude": 0, "visibility": -1, "drawOrder": null, "icon": null, "gx_media_links": null }, "geometry": { "type": "Point", "coordinates": [ -8.162536, 30.997324, 0.0 ] } },
{ "type": "Feature", "properties": { "Name": "Taskkourt", "description": "Région Marrakech-Safi<br>جمعية تاسكورت أسيف المال 0670732688‎‎‎", "timestamp": null, "begin": null, "end": null, "altitudeMode": null, "tessellate": -1, "extrude": 0, "visibility": -1, "drawOrder": null, "icon": null, "gx_media_links": null }, "geometry": { "type": "Point", "coordinates": [ -8.469157, 31.188031, 0.0 ] } },
{ "type": "Feature", "properties": { "Name": "أكادير بوستة‎‎", "description": "Région Marrakech- Safi 0667072169", "timestamp": null, "begin": null, "end": null, "altitudeMode": null, "tessellate": -1, "extrude": 0, "visibility": -1, "drawOrder": null, "icon": null, "gx_media_links": null }, "geometry": { "type": "Point", "coordinates": [ -8.15669, 31.5082, 0.0 ] } },
{ "type": "Feature", "properties": { "Name": "Agounsane ", "description": "Région Marrakech-Safi<br>0662862132", "timestamp": null, "begin": null, "end": null, "altitudeMode": null, "tessellate": -1, "extrude": 0, "visibility": -1, "drawOrder": null, "icon": null, "gx_media_links": null }, "geometry": { "type": "Point", "coordinates": [ -7.801812, 31.347062, 0.0 ] } },
{ "type": "Feature", "properties": { "Name": "Talat N'Yaaqoub", "description": "Région Marrakech-Safi<br>0696838602", "timestamp": null, "begin": null, "end": null, "altitudeMode": null, "tessellate": -1, "extrude": 0, "visibility": -1, "drawOrder": null, "icon": null, "gx_media_links": null }, "geometry": { "type": "Point", "coordinates": [ -8.18371, 30.98957, 0.0 ] } },
{ "type": "Feature", "properties": { "Name": "ايت حدو يوسف‎‎", "description": "Région Marrakech-Safi                                               <br>0661688007", "timestamp": null, "begin": null, "end": null, "altitudeMode": null, "tessellate": -1, "extrude": 0, "visibility": -1, "drawOrder": null, "icon": null, "gx_media_links": null }, "geometry": { "type": "Point", "coordinates": [ -8.72162, 30.937579, 0.0 ] } },
{ "type": "Feature", "properties": { "Name": "Izalaghen", "description": "Région Marrakech-Safi         <br>0668546655 - ALI AIT LMOUDDEN", "timestamp": null, "begin": null, "end": null, "altitudeMode": null, "tessellate": -1, "extrude": 0, "visibility": -1, "drawOrder": null, "icon": null, "gx_media_links": null }, "geometry": { "type": "Point", "coordinates": [ -8.202844, 31.211717, 0.0 ] } },
{ "type": "Feature", "properties": { "Name": "Ait Rzine", "description": "Région Marrakech-Safi<br>رقم أحد القاطنين: 0618022338<br>الناس هنا محتاجين المساعدة‎‎", "timestamp": null, "begin": null, "end": null, "altitudeMode": null, "tessellate": -1, "extrude": 0, "visibility": -1, "drawOrder": null, "icon": null, "gx_media_links": null }, "geometry": { "type": "Point", "coordinates": [ -8.26574, 31.28014, 0.0 ] } },
{ "type": "Feature", "properties": { "Name": "دوار جمار بردون‎", "description": "Région Marrakech-Safi<br>0766832369<br>0629657428<br>دوار جمار بردون جماعة مزوضة اقليم شيشاوة‎‎<br>‎", "timestamp": null, "begin": null, "end": null, "altitudeMode": null, "tessellate": -1, "extrude": 0, "visibility": -1, "drawOrder": null, "icon": null, "gx_media_links": null }, "geometry": { "type": "Point", "coordinates": [ -8.48119, 31.24466, 0.0 ] } },
{ "type": "Feature", "properties": { "Name": "Aguer Sioual", "description": "Région Marrakech-Safi<br>الرجاء مساعدة أهالي دوار أكرسيوال. يقع دوار أكرسيوال في منطقة إمليل ويحتاج السكان إلى دعمكم السريع. يمكنكم التواصل مع الأشخاص التاليين لتقديم المساعدة:<br><br>1- الحسين بن يحيى: 0604601317<br>2- محمد بن يحيى: 0690134048<br><br>يرجى الاتصال بهم وتقديم المساعدة. شكرًا لكم‎‎", "timestamp": null, "begin": null, "end": null, "altitudeMode": null, "tessellate": -1, "extrude": 0, "visibility": -1, "drawOrder": null, "icon": null, "gx_media_links": null }, "geometry": { "type": "Point", "coordinates": [ -7.92461, 31.16039, 0.0 ] } },
{ "type": "Feature", "properties": { "Name": "Centre Commune Mzouda", "description": "Région Marrakech-Safi                                               <br>06 56 70 10 63", "timestamp": null, "begin": null, "end": null, "altitudeMode": null, "tessellate": -1, "extrude": 0, "visibility": -1, "drawOrder": null, "icon": null, "gx_media_links": null }, "geometry": { "type": "Point", "coordinates": [ -8.585838, 31.286791, 0.0 ] } },
{ "type": "Feature", "properties": { "Name": "إسوال‎", "description": "Région Marrakech-Safi<br>0676519900", "timestamp": null, "begin": null, "end": null, "altitudeMode": null, "tessellate": -1, "extrude": 0, "visibility": -1, "drawOrder": null, "icon": null, "gx_media_links": null }, "geometry": { "type": "Point", "coordinates": [ -8.496121, 31.134867, 0.0 ] } },
{ "type": "Feature", "properties": { "Name": "Amghras", "description": "Région Marrakech-Safi<br>0629229622<br>0609909408", "timestamp": null, "begin": null, "end": null, "altitudeMode": null, "tessellate": -1, "extrude": 0, "visibility": -1, "drawOrder": null, "icon": null, "gx_media_links": null }, "geometry": { "type": "Point", "coordinates": [ -8.183712, 31.210095, 0.0 ] } },
{ "type": "Feature", "properties": { "Name": "BOUABOUT Amediane", "description": "+212651278782 Région Marrakech-Safi<br>+212616804822", "timestamp": null, "begin": null, "end": null, "altitudeMode": null, "tessellate": -1, "extrude": 0, "visibility": -1, "drawOrder": null, "icon": null, "gx_media_links": null }, "geometry": { "type": "Point", "coordinates": [ -9.23232, 31.2049, 0.0 ] } },
{ "type": "Feature", "properties": { "Name": "ُأُسِيكِيسْ‎", "description": "Région Marrakesh-Safi<br>0672808449", "timestamp": null, "begin": null, "end": null, "altitudeMode": null, "tessellate": -1, "extrude": 0, "visibility": -1, "drawOrder": null, "icon": null, "gx_media_links": null }, "geometry": { "type": "Point", "coordinates": [ -8.699888, 31.081729, 0.0 ] } },
{ "type": "Feature", "properties": { "Name": "دوار زينبت‎", "description": "Région Marrakech-Safi<br>دوار زينبت جل منازل السكان مهدمة و متضررة و سكانها يبيتون في العراء و يحتاجون الى الدعم فورا، المدرسة الخاصة بالمكان ايضا متضررة بشدة الهاتف 0622226968‎<br>‎", "timestamp": null, "begin": null, "end": null, "altitudeMode": null, "tessellate": -1, "extrude": 0, "visibility": -1, "drawOrder": null, "icon": null, "gx_media_links": null }, "geometry": { "type": "Point", "coordinates": [ -8.43969, 31.32508, 0.0 ] } },
{ "type": "Feature", "properties": { "Name": "دوار تمسيت‎", "description": "Région Marrakech-Safi<br>0670349203‎", "timestamp": null, "begin": null, "end": null, "altitudeMode": null, "tessellate": -1, "extrude": 0, "visibility": -1, "drawOrder": null, "icon": null, "gx_media_links": null }, "geometry": { "type": "Point", "coordinates": [ -7.98407, 31.24652, 0.0 ] } },
{ "type": "Feature", "properties": { "Name": "DAR JAMAA", "description": "Région Marrakech-Safi<br>+212 632-493287 نحن بحاجة إلى بطانيات وطعام في القرية‎", "timestamp": null, "begin": null, "end": null, "altitudeMode": null, "tessellate": -1, "extrude": 0, "visibility": -1, "drawOrder": null, "icon": null, "gx_media_links": null }, "geometry": { "type": "Point", "coordinates": [ -8.37731, 31.24946, 0.0 ] } },
{ "type": "Feature", "properties": { "Name": "Talat N'Yaaqoub", "description": "Région Marrakech-Safi<br>06 02 98 03 06<br>0602980306‎‎‎", "timestamp": null, "begin": null, "end": null, "altitudeMode": null, "tessellate": -1, "extrude": 0, "visibility": -1, "drawOrder": null, "icon": null, "gx_media_links": null }, "geometry": { "type": "Point", "coordinates": [ -8.235383, 30.99313, 0.0 ] } },
{ "type": "Feature", "properties": { "Name": "تمزممان اغيل‎", "description": "Région Marrakech-Safi<br>0663312575 <br>0625003577<br>0674771507‎", "timestamp": null, "begin": null, "end": null, "altitudeMode": null, "tessellate": -1, "extrude": 0, "visibility": -1, "drawOrder": null, "icon": null, "gx_media_links": null }, "geometry": { "type": "Point", "coordinates": [ -8.37582, 30.984374, 0.0 ] } },
{ "type": "Feature", "properties": { "Name": "Ait Aamara El Bour", "description": "Région Marrakech- Safi <br> 0غزلان حميدوش- 600108059", "timestamp": null, "begin": null, "end": null, "altitudeMode": null, "tessellate": -1, "extrude": 0, "visibility": -1, "drawOrder": null, "icon": null, "gx_media_links": null }, "geometry": { "type": "Point", "coordinates": [ -8.216766, 31.274838, 0.0 ] } },
{ "type": "Feature", "properties": { "Name": "Talborjt", "description": "Région Marrakech-Safi<br>0613635452", "timestamp": null, "begin": null, "end": null, "altitudeMode": null, "tessellate": -1, "extrude": 0, "visibility": -1, "drawOrder": null, "icon": null, "gx_media_links": null }, "geometry": { "type": "Point", "coordinates": [ -8.76546, 31.0845, 0.0 ] } },
{ "type": "Feature", "properties": { "Name": "دوار تجكَالت‎‎", "description": "Région Marrakech-Safi<br>للتواصل جمعية غيت 0772170879<br>0620304229", "timestamp": null, "begin": null, "end": null, "altitudeMode": null, "tessellate": -1, "extrude": 0, "visibility": -1, "drawOrder": null, "icon": null, "gx_media_links": null }, "geometry": { "type": "Point", "coordinates": [ -8.855264, 31.060756, 0.0 ] } },
{ "type": "Feature", "properties": { "Name": "Tajelt-تاجلت اوفلا‎‎", "description": "Région Souss- Massa<br>جماعة ايملمايس قيادة اركانة <br>0646593692<br>‎<br>‎", "timestamp": null, "begin": null, "end": null, "altitudeMode": null, "tessellate": -1, "extrude": 0, "visibility": -1, "drawOrder": null, "icon": null, "gx_media_links": null }, "geometry": { "type": "Point", "coordinates": [ -8.751475, 31.04733, 0.0 ] } },
{ "type": "Feature", "properties": { "Name": "دوار تابيا ‎‎", "description": "Région Marrakech- Safi<br> +212 693-723500<br><br><br>.‎", "timestamp": null, "begin": null, "end": null, "altitudeMode": null, "tessellate": -1, "extrude": 0, "visibility": -1, "drawOrder": null, "icon": null, "gx_media_links": null }, "geometry": { "type": "Point", "coordinates": [ -8.730749, 31.125059, 0.0 ] } },
{ "type": "Feature", "properties": { "Name": "تكلخير‎", "description": "Région Marrakech- Safi<br>0668-280789 - جمعية تكلخير للتنمية والتعاون", "timestamp": null, "begin": null, "end": null, "altitudeMode": null, "tessellate": -1, "extrude": 0, "visibility": -1, "drawOrder": null, "icon": null, "gx_media_links": null }, "geometry": { "type": "Point", "coordinates": [ -7.09262, 31.791702, 0.0 ] } },
{ "type": "Feature", "properties": { "Name": "Douar Tizguie Takkent", "description": "Région Marrakech- Safi<br>0668792425", "timestamp": null, "begin": null, "end": null, "altitudeMode": null, "tessellate": -1, "extrude": 0, "visibility": -1, "drawOrder": null, "icon": null, "gx_media_links": null }, "geometry": { "type": "Point", "coordinates": [ -8.071789, 31.091691, 0.0 ] } },
{ "type": "Feature", "properties": { "Name": "talat inoualen", "description": "Région Marrakech- Safi <br>0674-205968", "timestamp": null, "begin": null, "end": null, "altitudeMode": null, "tessellate": -1, "extrude": 0, "visibility": -1, "drawOrder": null, "icon": null, "gx_media_links": null }, "geometry": { "type": "Point", "coordinates": [ -8.143516, 31.309112, 0.0 ] } },
{ "type": "Feature", "properties": { "Name": "Metili", "description": "Marrakech-Safi<br>+212773783304", "timestamp": null, "begin": null, "end": null, "altitudeMode": null, "tessellate": -1, "extrude": 0, "visibility": -1, "drawOrder": null, "icon": null, "gx_media_links": null }, "geometry": { "type": "Point", "coordinates": [ -8.746391, 30.938695, 0.0 ] } },
{ "type": "Feature", "properties": { "Name": "أيت حدو", "description": "Région Marrakesh-Safi\t0651149279", "timestamp": null, "begin": null, "end": null, "altitudeMode": null, "tessellate": -1, "extrude": 0, "visibility": -1, "drawOrder": null, "icon": null, "gx_media_links": null }, "geometry": { "type": "Point", "coordinates": [ -8.307609, 30.824338, 0.0 ] } },
{ "type": "Feature", "properties": { "Name": "دوار ايت ورداس جماعة امزوضة شيشاوة", "description": "Région Marrakesh-Safi\t<br>aguezar mustapha 0616186682", "timestamp": null, "begin": null, "end": null, "altitudeMode": null, "tessellate": -1, "extrude": 0, "visibility": -1, "drawOrder": null, "icon": null, "gx_media_links": null }, "geometry": { "type": "Point", "coordinates": [ -8.587766, 31.232688, 0.0 ] } },
{ "type": "Feature", "properties": { "Name": "Tifni (دوار ايكريا , دوار تيكرار , دوار ايلماواس \nدوار تودما  , دوار ايمين تيفني )", "description": "Région Marrakech- Safi<br>212 634-075150", "timestamp": null, "begin": null, "end": null, "altitudeMode": null, "tessellate": -1, "extrude": 0, "visibility": -1, "drawOrder": null, "icon": null, "gx_media_links": null }, "geometry": { "type": "Point", "coordinates": [ -8.353379, 30.944434, 0.0 ] } },
{ "type": "Feature", "properties": { "Name": "تاوريرت", "description": "Région Marrakesh-Safi\t0625985840", "timestamp": null, "begin": null, "end": null, "altitudeMode": null, "tessellate": -1, "extrude": 0, "visibility": -1, "drawOrder": null, "icon": null, "gx_media_links": null }, "geometry": { "type": "Point", "coordinates": [ -8.718109, 30.913362, 0.0 ] } },
{ "type": "Feature", "properties": { "Name": "دوار اومناس", "description": "Region : Région Marrakesh-Safi <br>Tele : 0644-684967", "timestamp": null, "begin": null, "end": null, "altitudeMode": null, "tessellate": -1, "extrude": 0, "visibility": -1, "drawOrder": null, "icon": null, "gx_media_links": null }, "geometry": { "type": "Point", "coordinates": [ -8.074125, 31.419696, 0.0 ] } },
{ "type": "Feature", "properties": { "Name": "أركت ", "description": "Région Marrakesh-Safi 0716078625 | 0688565326 - | khalid 0680831475", "timestamp": null, "begin": null, "end": null, "altitudeMode": null, "tessellate": -1, "extrude": 0, "visibility": -1, "drawOrder": null, "icon": null, "gx_media_links": null }, "geometry": { "type": "Point", "coordinates": [ -8.133672, 31.026562, 0.0 ] } },
{ "type": "Feature", "properties": { "Name": "دوار تاوليلو", "description": "Région Marrakesh-Safi<br>0666039214", "timestamp": null, "begin": null, "end": null, "altitudeMode": null, "tessellate": -1, "extrude": 0, "visibility": -1, "drawOrder": null, "icon": null, "gx_media_links": null }, "geometry": { "type": "Point", "coordinates": [ -8.0342, 31.423485, 0.0 ] } },
{ "type": "Feature", "properties": { "Name": "ايت خطاب اوزدار‎‎", "description": "Marrakech-Safi<br>+212 662-326734", "timestamp": null, "begin": null, "end": null, "altitudeMode": null, "tessellate": -1, "extrude": 0, "visibility": -1, "drawOrder": null, "icon": null, "gx_media_links": null }, "geometry": { "type": "Point", "coordinates": [ -9.118144, 30.869634, 0.0 ] } },
{ "type": "Feature", "properties": { "Name": "دوار تلامنزو", "description": "0609129316", "timestamp": null, "begin": null, "end": null, "altitudeMode": null, "tessellate": -1, "extrude": 0, "visibility": -1, "drawOrder": null, "icon": null, "gx_media_links": null }, "geometry": { "type": "Point", "coordinates": [ -8.416986, 31.379232, 0.0 ] } },
{ "type": "Feature", "properties": { "Name": "دوار تزكي تكنت‎‎‎‎", "description": "Region marrakech safi <br> 0616276368 \/ 0666-665357", "timestamp": null, "begin": null, "end": null, "altitudeMode": null, "tessellate": -1, "extrude": 0, "visibility": -1, "drawOrder": null, "icon": null, "gx_media_links": null }, "geometry": { "type": "Point", "coordinates": [ -8.038419, 31.071675, 0.0 ] } },
{ "type": "Feature", "properties": { "Name": "دوار اسيف الحلو‎‎‎", "description": "عمالة شيشاوة<br>.0645779974‎‎‎", "timestamp": null, "begin": null, "end": null, "altitudeMode": null, "tessellate": -1, "extrude": 0, "visibility": -1, "drawOrder": null, "icon": null, "gx_media_links": null }, "geometry": { "type": "Point", "coordinates": [ -8.676582, 30.933717, 0.0 ] } },
{ "type": "Feature", "properties": { "Name": "دوار امتيلي‎‎", "description": "جهة : اقليم شيشاوة<br>0688733311<br>.0773783304<br>‎‎", "timestamp": null, "begin": null, "end": null, "altitudeMode": null, "tessellate": -1, "extrude": 0, "visibility": -1, "drawOrder": null, "icon": null, "gx_media_links": null }, "geometry": { "type": "Point", "coordinates": [ -8.740159, 30.939785, 0.0 ] } },
{ "type": "Feature", "properties": { "Name": "أنامر", "description": "Région Marrakesh-Safi<br>0697489403", "timestamp": null, "begin": null, "end": null, "altitudeMode": null, "tessellate": -1, "extrude": 0, "visibility": -1, "drawOrder": null, "icon": null, "gx_media_links": null }, "geometry": { "type": "Point", "coordinates": [ -8.45064, 31.19138, 0.0 ] } },
{ "type": "Feature", "properties": { "Name": "دوار تبرادجوت‎", "description": "Région Marrakech-Safi <br> 0613178214<br>.‎", "timestamp": null, "begin": null, "end": null, "altitudeMode": null, "tessellate": -1, "extrude": 0, "visibility": -1, "drawOrder": null, "icon": null, "gx_media_links": null }, "geometry": { "type": "Point", "coordinates": [ -8.706785, 31.106394, 0.0 ] } },
{ "type": "Feature", "properties": { "Name": "دوار ترخت‎‎", "description": "Région Marrakech- Safi<br>0617802195 ‎", "timestamp": null, "begin": null, "end": null, "altitudeMode": null, "tessellate": -1, "extrude": 0, "visibility": -1, "drawOrder": null, "icon": null, "gx_media_links": null }, "geometry": { "type": "Point", "coordinates": [ -8.357546, 30.989467, 0.0 ] } },
{ "type": "Feature", "properties": { "Name": "جماعة إمكدال‎‎‎‎", "description": "Région Marrakech- Safi <br>دوار تنيسكت 0626331072‎<br>‎‎", "timestamp": null, "begin": null, "end": null, "altitudeMode": null, "tessellate": -1, "extrude": 0, "visibility": -1, "drawOrder": null, "icon": null, "gx_media_links": null }, "geometry": { "type": "Point", "coordinates": [ -8.12466, 31.117116, 0.0 ] } },
{ "type": "Feature", "properties": { "Name": "Secteur scolaire adouz", "description": "Région Marrakech- Safi 0693960318<br>0627733492", "timestamp": null, "begin": null, "end": null, "altitudeMode": null, "tessellate": -1, "extrude": 0, "visibility": -1, "drawOrder": null, "icon": null, "gx_media_links": null }, "geometry": { "type": "Point", "coordinates": [ -8.646111, 31.115008, 0.0 ] } },
{ "type": "Feature", "properties": { "Name": "امزري‎‎", "description": "Région Marrakech-Safi<br>0667010849<br>0643922529", "timestamp": null, "begin": null, "end": null, "altitudeMode": null, "tessellate": -1, "extrude": 0, "visibility": -1, "drawOrder": null, "icon": null, "gx_media_links": null }, "geometry": { "type": "Point", "coordinates": [ -8.358889, 31.138861, 0.0 ] } },
{ "type": "Feature", "properties": { "Name": "اسلون‎", "description": "Région Marrakech-Safi<br>0614406235<br>0776156440‎", "timestamp": null, "begin": null, "end": null, "altitudeMode": null, "tessellate": -1, "extrude": 0, "visibility": -1, "drawOrder": null, "icon": null, "gx_media_links": null }, "geometry": { "type": "Point", "coordinates": [ -8.35182, 30.992728, 0.0 ] } },
{ "type": "Feature", "properties": { "Name": "Asloune", "description": "Région Marrakech-Safi<br>0614406235<br>0776156440", "timestamp": null, "begin": null, "end": null, "altitudeMode": null, "tessellate": -1, "extrude": 0, "visibility": -1, "drawOrder": null, "icon": null, "gx_media_links": null }, "geometry": { "type": "Point", "coordinates": [ -8.559226, 31.227693, 0.0 ] } },
{ "type": "Feature", "properties": { "Name": "تيكوكة‎‏‎", "description": "Région Marrakech-Safi<br>0668280789", "timestamp": null, "begin": null, "end": null, "altitudeMode": null, "tessellate": -1, "extrude": 0, "visibility": -1, "drawOrder": null, "icon": null, "gx_media_links": null }, "geometry": { "type": "Point", "coordinates": [ -8.61422, 30.901078, 0.0 ] } },
{ "type": "Feature", "properties": { "Name": "Tachddirt", "description": "Numéro de téléphone : Rachid 06 50 99 10 39<br>Région Marrakech- Safi", "timestamp": null, "begin": null, "end": null, "altitudeMode": null, "tessellate": -1, "extrude": 0, "visibility": -1, "drawOrder": null, "icon": null, "gx_media_links": null }, "geometry": { "type": "Point", "coordinates": [ -7.846064, 31.15639, 0.0 ] } },
{ "type": "Feature", "properties": { "Name": "Aroumd", "description": "Région Marrakech-Safi<br>المرشد ياسين0705275625 <br>تواصلت مع الناس المتواجدين في هذه القريه لم تصلهم ايه اعانه بعد فتح الطرق البارحه والناس لا يستطيعون حتى الطبخ حيث الاغلبيه بدون ماوى الاخرين مصابون تنقصهم المؤونه والاغطيه والافرشه<br>والخييم<br>‎‎", "timestamp": null, "begin": null, "end": null, "altitudeMode": null, "tessellate": -1, "extrude": 0, "visibility": -1, "drawOrder": null, "icon": null, "gx_media_links": null }, "geometry": { "type": "Point", "coordinates": [ -7.91744, 31.12607, 0.0 ] } },
{ "type": "Feature", "properties": { "Name": "وزكيتة‎‎‎", "description": "Région Marrakech-Safi<br>0644684967", "timestamp": null, "begin": null, "end": null, "altitudeMode": null, "tessellate": -1, "extrude": 0, "visibility": -1, "drawOrder": null, "icon": null, "gx_media_links": null }, "geometry": { "type": "Point", "coordinates": [ -8.074782, 31.291672, 0.0 ] } },
{ "type": "Feature", "properties": { "Name": "Adassil", "description": "<img src=\"https:\/\/lh3.googleusercontent.com\/umsh\/AN6v0v5X_AShrHuAJCllmDKCAnkr1s8hnw7MClmSiJYgBg4ZAilRVDZ_07hTUaGPVYiqh50_bruXnwxAVGFvuibMtwEVgM_Ro2_l6sLZRplJ4fG_cBQJSHLUSaETJuPARHdaPnv5E7DZz-TPNLKioyQvbwJAsFkNDpkvt_jATvWsvzCNV7gkuuPf6N2TYi1bpabcg1zBTv7VpAp5QJlZhTiBpETorYVZawhn_qTK63rhJtc3-hGb65LxSiX-rj2lilWxQ7bKUWJzDrVBn0AuAZpVUHrB6FkGPANkb3uVV1b4114tyF6D3Soh6QOBa4lhSUsBuGTpVVlhxbNIxgdgK9l28h_GPl13COZtWRDVmT3DzCUqg1f99gAxIG2iAXlPs2M_nLx7XukpjUImJvls6gkeAtSah9A9yVo6z8cMSLu-KQt-qcbdZZDsuDULV-eAAvSNy_9OibVhBZHPwlDCLd-V9OOw5TDUmX6aeAsPkpn4-lHMeEf_QX-oAwJfC36-GNVr-Al4Ik7Bq70LFERxTjotBEiJx3bw_dqTXPDtfI7ZZhb5rZbj9dMIBjJK2OWngi22xmKZGx6AFU0ycFjqvLiA5_51hs1bS1kMvaUE20mENFDs6SPD3sKAAKLoFWws4QhoO8T7Dpa7lvvz7d2Jank_c5E_SMBDxoYq-njOFEVcvc1udcLRG7QtShwz6vVI903WY4h-wLeX6oS0Dp4Y0KRm5xm0hESudDcCexttQxpZJgRjKh_V4nmxNMe9BzQ1-cXMt2WJuFB_T86xCjo_0qAAdUdPihGLzDPEdd_Sy-G3BvfcaHrySMU43akV9LjI2vIacVpyU5EyOzRyJhxUeKe3BImtonqZ44XtY41q3DY-v-BS0gQI5wp8pTM9oomtE8sKwEshv57zclZp6bV98eLMJ4YEeWG64Szehye0JuePmZMIgcaJquaW_yVVQ_iK7oiAVzQBnfh4A6Qj3N6Tibnd4z7x10NerC5Kr-8TY9ctQ85jeRzXz45pfI-IegwM1NiyWQeiZpDzqNZB4yQXVsySsRh6gx9oz6Ti5yvNa2-qg5Di__I3GExm7WUwIKdy6DGRLRRyh9e8Tvsv_V3VCd5U1PGwJeCa_nvfaxjCVTQnMLpC5S_rFUU4IAU0EfxAyKJo_lQ7Abw08eku0tawZmTppLp-2rmGGGeGJFfHKlvIMmBBmQpfvuVXh8WEOw_HMbPBU4qJEV8Mf7liQqiljy7Cek_hV8x2q4rHe45ZSTeOdW2ZxN4E3Fw6YkX3ZpfgbCBZaZ1EtYwiVHOvQKBCxRaq764Aja2kW2RdbOO3shMh-TSweYzsOuiMHV4DVGhjeoFRqePmr8uxNmbicwHQDlAzEpKEPjQAqLL3gGEZLnfffgm6uagkOgVLeef7Ip5PCgqbDzjbC46j3X57GheH6CI_Cn74zwXg9HsdtWnQG2qxKS0uUWf-u3vPdRRMsrJOCWLF5XcJkGT7zVeWY-7C7Qsc7ieMSArGTIQj32xehaYiVibxVTN_R-M5_slOr2gTfQqBNWpL8yo687zu65mlIGn0BKFtdpspVtFZsREN3RtQnexsExe8tmXhvUc7Y6BLLf0-zsHTFH83uo7oyV9Rcn8LOAp6ltcWYr4XOdZe9GkKF_B2VAV89BvBInfaocVjzJJQ1juA3Me59NnekGoD3LkeKZXlqUDvqEiDxqToPViYziuBvolRK7ZQSd1JBOQ4QLKS_M-VCdnZiPeKv2C_3YIAUqx3BZuBOx6MeATYm7R_AVf7E_U8m4EzZnzER24L7gvHSx7GNFxf\" height=\"200\" width=\"auto\" \/><br><br>Région Marrakech-Safi<br> جمعية النجاح للاعمال الاجتماعية و التنمية المستدمة بدوار امين  الرخى :0661688007<br>0637594966جمعية تمسولت أداسيل                                    جمعية تاركة امسمارت اداسيل  : 0676518652 ‎‎‎‎‎‎‎", "timestamp": null, "begin": null, "end": null, "altitudeMode": null, "tessellate": -1, "extrude": 0, "visibility": -1, "drawOrder": null, "icon": null, "gx_media_links": "https:\/\/lh3.googleusercontent.com\/umsh\/AN6v0v5X_AShrHuAJCllmDKCAnkr1s8hnw7MClmSiJYgBg4ZAilRVDZ_07hTUaGPVYiqh50_bruXnwxAVGFvuibMtwEVgM_Ro2_l6sLZRplJ4fG_cBQJSHLUSaETJuPARHdaPnv5E7DZz-TPNLKioyQvbwJAsFkNDpkvt_jATvWsvzCNV7gkuuPf6N2TYi1bpabcg1zBTv7VpAp5QJlZhTiBpETorYVZawhn_qTK63rhJtc3-hGb65LxSiX-rj2lilWxQ7bKUWJzDrVBn0AuAZpVUHrB6FkGPANkb3uVV1b4114tyF6D3Soh6QOBa4lhSUsBuGTpVVlhxbNIxgdgK9l28h_GPl13COZtWRDVmT3DzCUqg1f99gAxIG2iAXlPs2M_nLx7XukpjUImJvls6gkeAtSah9A9yVo6z8cMSLu-KQt-qcbdZZDsuDULV-eAAvSNy_9OibVhBZHPwlDCLd-V9OOw5TDUmX6aeAsPkpn4-lHMeEf_QX-oAwJfC36-GNVr-Al4Ik7Bq70LFERxTjotBEiJx3bw_dqTXPDtfI7ZZhb5rZbj9dMIBjJK2OWngi22xmKZGx6AFU0ycFjqvLiA5_51hs1bS1kMvaUE20mENFDs6SPD3sKAAKLoFWws4QhoO8T7Dpa7lvvz7d2Jank_c5E_SMBDxoYq-njOFEVcvc1udcLRG7QtShwz6vVI903WY4h-wLeX6oS0Dp4Y0KRm5xm0hESudDcCexttQxpZJgRjKh_V4nmxNMe9BzQ1-cXMt2WJuFB_T86xCjo_0qAAdUdPihGLzDPEdd_Sy-G3BvfcaHrySMU43akV9LjI2vIacVpyU5EyOzRyJhxUeKe3BImtonqZ44XtY41q3DY-v-BS0gQI5wp8pTM9oomtE8sKwEshv57zclZp6bV98eLMJ4YEeWG64Szehye0JuePmZMIgcaJquaW_yVVQ_iK7oiAVzQBnfh4A6Qj3N6Tibnd4z7x10NerC5Kr-8TY9ctQ85jeRzXz45pfI-IegwM1NiyWQeiZpDzqNZB4yQXVsySsRh6gx9oz6Ti5yvNa2-qg5Di__I3GExm7WUwIKdy6DGRLRRyh9e8Tvsv_V3VCd5U1PGwJeCa_nvfaxjCVTQnMLpC5S_rFUU4IAU0EfxAyKJo_lQ7Abw08eku0tawZmTppLp-2rmGGGeGJFfHKlvIMmBBmQpfvuVXh8WEOw_HMbPBU4qJEV8Mf7liQqiljy7Cek_hV8x2q4rHe45ZSTeOdW2ZxN4E3Fw6YkX3ZpfgbCBZaZ1EtYwiVHOvQKBCxRaq764Aja2kW2RdbOO3shMh-TSweYzsOuiMHV4DVGhjeoFRqePmr8uxNmbicwHQDlAzEpKEPjQAqLL3gGEZLnfffgm6uagkOgVLeef7Ip5PCgqbDzjbC46j3X57GheH6CI_Cn74zwXg9HsdtWnQG2qxKS0uUWf-u3vPdRRMsrJOCWLF5XcJkGT7zVeWY-7C7Qsc7ieMSArGTIQj32xehaYiVibxVTN_R-M5_slOr2gTfQqBNWpL8yo687zu65mlIGn0BKFtdpspVtFZsREN3RtQnexsExe8tmXhvUc7Y6BLLf0-zsHTFH83uo7oyV9Rcn8LOAp6ltcWYr4XOdZe9GkKF_B2VAV89BvBInfaocVjzJJQ1juA3Me59NnekGoD3LkeKZXlqUDvqEiDxqToPViYziuBvolRK7ZQSd1JBOQ4QLKS_M-VCdnZiPeKv2C_3YIAUqx3BZuBOx6MeATYm7R_AVf7E_U8m4EzZnzER24L7gvHSx7GNFxf" }, "geometry": { "type": "Point", "coordinates": [ -8.496595, 31.112307, 0.0 ] } },
{ "type": "Feature", "properties": { "Name": "Douar Taoukart", "description": "Région Marrakech-Safi<br> 0666539413 - Houssain", "timestamp": null, "begin": null, "end": null, "altitudeMode": null, "tessellate": -1, "extrude": 0, "visibility": -1, "drawOrder": null, "icon": null, "gx_media_links": null }, "geometry": { "type": "Point", "coordinates": [ -7.972638, 31.241597, 0.0 ] } },
{ "type": "Feature", "properties": { "Name": "دوار تيزفريت", "description": "Région Marrakech-Safi <br>0645280155", "timestamp": null, "begin": null, "end": null, "altitudeMode": null, "tessellate": -1, "extrude": 0, "visibility": -1, "drawOrder": null, "icon": null, "gx_media_links": null }, "geometry": { "type": "Point", "coordinates": [ -8.267391, 31.243838, 0.0 ] } },
{ "type": "Feature", "properties": { "Name": "IKISS", "description": "0622443242          Région Marrakech-Safi‏‏‏", "timestamp": null, "begin": null, "end": null, "altitudeMode": null, "tessellate": -1, "extrude": 0, "visibility": -1, "drawOrder": null, "icon": null, "gx_media_links": null }, "geometry": { "type": "Point", "coordinates": [ -7.516433, 31.317898, 0.0 ] } },
{ "type": "Feature", "properties": { "Name": "Aït Bourd", "description": "Région Marrakech- Safi<br>0605998489<br>mustapha <br>0605998489", "timestamp": null, "begin": null, "end": null, "altitudeMode": null, "tessellate": -1, "extrude": 0, "visibility": -1, "drawOrder": null, "icon": null, "gx_media_links": null }, "geometry": { "type": "Point", "coordinates": [ -8.36666, 31.21681, 0.0 ] } },
{ "type": "Feature", "properties": { "Name": "Adassil", "description": "Région Marrakech-Safi<br>0662824142", "timestamp": null, "begin": null, "end": null, "altitudeMode": null, "tessellate": -1, "extrude": 0, "visibility": -1, "drawOrder": null, "icon": null, "gx_media_links": null }, "geometry": { "type": "Point", "coordinates": [ -8.496595, 31.112307, 0.0 ] } },
{ "type": "Feature", "properties": { "Name": "Chichaoua", "description": "Région Marrakech-Safi                                             <br>0693723500                                                                 <br>0652408161<br>0660016402", "timestamp": null, "begin": null, "end": null, "altitudeMode": null, "tessellate": -1, "extrude": 0, "visibility": -1, "drawOrder": null, "icon": null, "gx_media_links": null }, "geometry": { "type": "Point", "coordinates": [ -8.764639, 31.538358, 0.0 ] } },
{ "type": "Feature", "properties": { "Name": "أنميتر‎", "description": "Région Marrakech-Safi<br>0620401968", "timestamp": null, "begin": null, "end": null, "altitudeMode": null, "tessellate": -1, "extrude": 0, "visibility": -1, "drawOrder": null, "icon": null, "gx_media_links": null }, "geometry": { "type": "Point", "coordinates": [ -7.785025, 31.198114, 0.0 ] } },
{ "type": "Feature", "properties": { "Name": "Centre Commune Ain Tazitounte", "description": "Région Marrakech-Safi - 0623482738 الرقم ديال الشيخ", "timestamp": null, "begin": null, "end": null, "altitudeMode": null, "tessellate": -1, "extrude": 0, "visibility": -1, "drawOrder": null, "icon": null, "gx_media_links": null }, "geometry": { "type": "Point", "coordinates": [ -8.925914, 31.125837, 0.0 ] } },
{ "type": "Feature", "properties": { "Name": "Lalla Aziza", "description": "Région Marrakech-Safi                                               رقم هاتف الجمعية - 0652408161<br>0771038310 ‎", "timestamp": null, "begin": null, "end": null, "altitudeMode": null, "tessellate": -1, "extrude": 0, "visibility": -1, "drawOrder": null, "icon": null, "gx_media_links": null }, "geometry": { "type": "Point", "coordinates": [ -8.699947, 31.081647, 0.0 ] } },
{ "type": "Feature", "properties": { "Name": "ايت حدو يوسف إقليم شيشاوة‎‎‎‎‎", "description": "Région Marrakech-Safi                                               <br>06 93 72 35 00                                                             <br>0661688007", "timestamp": null, "begin": null, "end": null, "altitudeMode": null, "tessellate": -1, "extrude": 0, "visibility": -1, "drawOrder": null, "icon": null, "gx_media_links": null }, "geometry": { "type": "Point", "coordinates": [ -8.72162, 30.937579, 0.0 ] } },
{ "type": "Feature", "properties": { "Name": "Imindounit‏", "description": "Région Marrakech-Safi<br>0674277085<br>جمعية افولكي دوار تاونغاست  : 0676877090<br>جمعية انكوخت اميندونيت : 0674277085<br>0676877090<br>‎‎‎‎‏0645339675", "timestamp": null, "begin": null, "end": null, "altitudeMode": null, "tessellate": -1, "extrude": 0, "visibility": -1, "drawOrder": null, "icon": null, "gx_media_links": null }, "geometry": { "type": "Point", "coordinates": [ -8.531593, 31.066618, 0.0 ] } },
{ "type": "Feature", "properties": { "Name": "Adassil", "description": "Région Marrakech-Safi                                              <br>0676518652                                             <br>06 61 68 80 07                                                            <br>06 62 82 41 42                                                               <br>06 13 95 47 46                                                            <br>06 61 50 94 95                                                            <br>06 62 80 18 34                                                            <br>0672364317", "timestamp": null, "begin": null, "end": null, "altitudeMode": null, "tessellate": -1, "extrude": 0, "visibility": -1, "drawOrder": null, "icon": null, "gx_media_links": null }, "geometry": { "type": "Point", "coordinates": [ -8.496595, 31.112307, 0.0 ] } },
{ "type": "Feature", "properties": { "Name": "Assif El Mal", "description": "Région Marrakech-Safi                                               <br>0637594966                                                                 <br>0637620313                                                               <br>06 70 73 26 88", "timestamp": null, "begin": null, "end": null, "altitudeMode": null, "tessellate": -1, "extrude": 0, "visibility": -1, "drawOrder": null, "icon": null, "gx_media_links": null }, "geometry": { "type": "Point", "coordinates": [ -8.478073, 31.308873, 0.0 ] } },
{ "type": "Feature", "properties": { "Name": "ادسيار امزغني‎‎‎‎‎", "description": "Région Marrakech-Safi <br>0702783845<br>0601250906<br>0601-250906<br><br>‎<br>‎<br>‎", "timestamp": null, "begin": null, "end": null, "altitudeMode": null, "tessellate": -1, "extrude": 0, "visibility": -1, "drawOrder": null, "icon": null, "gx_media_links": null }, "geometry": { "type": "Point", "coordinates": [ -8.091287, 31.020094, 0.0 ] } },
{ "type": "Feature", "properties": { "Name": "DWAR TAZALT تزالت‎", "description": "Région Marrakech-Safi<br>0666166559", "timestamp": null, "begin": null, "end": null, "altitudeMode": null, "tessellate": -1, "extrude": 0, "visibility": -1, "drawOrder": null, "icon": null, "gx_media_links": null }, "geometry": { "type": "Point", "coordinates": [ -8.24828, 30.98027, 0.0 ] } },
{ "type": "Feature", "properties": { "Name": "Amizmiz‏‏‏", "description": "Région Marrakesh-Safi                                                <br> 0697676977                                                                عمر 06660969 <br>0615648798  <br>  0697545036‏‏‏", "timestamp": null, "begin": null, "end": null, "altitudeMode": null, "tessellate": -1, "extrude": 0, "visibility": -1, "drawOrder": null, "icon": null, "gx_media_links": null }, "geometry": { "type": "Point", "coordinates": [ -8.24044, 31.218547, 0.0 ] } },
{ "type": "Feature", "properties": { "Name": "Douar Taoukart", "description": "Région Marrakech- Safi<br>0666539413 - Houssain", "timestamp": null, "begin": null, "end": null, "altitudeMode": null, "tessellate": -1, "extrude": 0, "visibility": -1, "drawOrder": null, "icon": null, "gx_media_links": null }, "geometry": { "type": "Point", "coordinates": [ -7.969922, 31.250462, 0.0 ] } },
{ "type": "Feature", "properties": { "Name": "Tiniskt", "description": "Région Marrakech-Safi<br>0637517342", "timestamp": null, "begin": null, "end": null, "altitudeMode": null, "tessellate": -1, "extrude": 0, "visibility": -1, "drawOrder": null, "icon": null, "gx_media_links": null }, "geometry": { "type": "Point", "coordinates": [ -8.14512, 31.11264, 0.0 ] } },
{ "type": "Feature", "properties": { "Name": "Douar Tamassit", "description": "Région Marrakech-Safi<br>0666070159 - Omar Ait Bourhim", "timestamp": null, "begin": null, "end": null, "altitudeMode": null, "tessellate": -1, "extrude": 0, "visibility": -1, "drawOrder": null, "icon": null, "gx_media_links": null }, "geometry": { "type": "Point", "coordinates": [ -7.974232, 31.239197, 0.0 ] } },
{ "type": "Feature", "properties": { "Name": "Toulkine", "description": "Région Marrakech-Safi<br>0697545036", "timestamp": null, "begin": null, "end": null, "altitudeMode": null, "tessellate": -1, "extrude": 0, "visibility": -1, "drawOrder": null, "icon": null, "gx_media_links": null }, "geometry": { "type": "Point", "coordinates": [ -8.331431, 31.162217, 0.0 ] } },
{ "type": "Feature", "properties": { "Name": "Tidli Mesfioua", "description": "Région Marrakech- Safi   0600108059 0662820479", "timestamp": null, "begin": null, "end": null, "altitudeMode": null, "tessellate": -1, "extrude": 0, "visibility": -1, "drawOrder": null, "icon": null, "gx_media_links": null }, "geometry": { "type": "Point", "coordinates": [ -7.668141, 31.491138, 0.0 ] } },
{ "type": "Feature", "properties": { "Name": "دوار بوخلف ‎", "description": "Région Marrakech-Safi <br>0666096904<br> ‎", "timestamp": null, "begin": null, "end": null, "altitudeMode": null, "tessellate": -1, "extrude": 0, "visibility": -1, "drawOrder": null, "icon": null, "gx_media_links": null }, "geometry": { "type": "Point", "coordinates": [ -8.396438, 31.253562, 0.0 ] } },
{ "type": "Feature", "properties": { "Name": "Assif El Mal", "description": "<img src=\"https:\/\/lh3.googleusercontent.com\/umsh\/AN6v0v5sNEd0M5wPjNw8bf_dc_lotMUKn9omrpU7X5-whZtb_kp_W2UNd4433oy0mX_VSwuol2GtNrVMCRFJ97ZMNeMq3G09rNX4qI0rAO3Kq3nczLjDNjM7uqBtAV-0GHUphRXdhT-l4EgzYeb5cl-7g4ulMsiztiYcE9wl6gNiOaP21m8eqAPDuX8Hr6FmsolJWro25168CKBywdqKBC8jzLHkndylxFxHxfu1_9C8Js8YXL895fHoPj9Bf53p0WAiqnb9e-vtkZXm4BNASjnA96oSa_Pyd2NfHup21p0qvguAuS11110RnsLEwQnZp7LBhXlluHgt06nOacT-dyFC2nd5T7C31sxa8EtKfE6lcPPWpYcnRklnB77WSI5Wf_r1MmglJsi62gihkS5OAE3VVfpoRE-Y3T0_mmB6jJXU6W1zVIamU2ydkxN6gY9zDIWd_lf3CU_HMtKsEXPoIWDdo1VIygGC4swOhprrKMP433hmxw8FuzxUyZTLOxbVZgzRJGGscBtyQQvvxBWGw-EtYt2kOrJaeshMk7G3XKe_Li7JXC8QV6NJVvt4Z_d0jbD2vpwmkG-H2VYbU_YkrpO_1avTE_Y5XrqEQEk5QkHLoPyxE4vOgeFc9EKypWz6efHLxh4YyiXNnJN_pg4kHkdlHES0fzkt3Voxp7jYcPESfEctCej-C3tBa7shoIr3VGK6RcrIt8VVM6CsVhZ-T2JFSl35poOepi8MztVsLOUPVe9mu-w7nc5GTUg95XbEE_F6Y4QBSdpXIE6qjLENOA-i_WoZCMhVCGhOvPn_5k6eqpRHrQCLHU-qVi4bASVhRwP_DQn2b6mIV9zNgA7ccfw8enXJSJQ2Pa9B2xmybXO4fUeNV8EgiQ1rOVgslauP-lyHyGOvr3ZJ8VPlh9PJ1C4lg0STF0H2T5jSW6DpVDJQvlhruOSyAdHOpFLb9kZ_hQJlVw5zrPMJDElSQb-FcNqbmH_Gthg2lm7lhNjFakBAFuXB-TJJKfRpdMtACWbztlhTcDuZPifRkCv5ZTKy6K0XJ-cmYZaCo47I-Wi-W6oy6FZzC_-t56BO8tuNwpm-3158os89OGzHCN_a7PwzQ-Na8IiSEV2idX-wBijY76BZheMsdHIzmmVx56mymwiFxYxkgrRWqO-VaowTuidLnqkshisXBVKcYCyacgbiwDm_Q78ulVydHb3zyXXzdzzFhEZIAR8pdgCW9ngDxHfDhkdLk-dmUTVGaMe_fHASu_rZA1gk7saEoYDEdb7a0Umkd03jl5LEoyYP_V5srQekpV_IGfnNkgXD_0UaMgYJztiZc12rBJahNMHl1tr68CO4YdT4ZOnnf-Bgs_1ngQ_BlIuU3PWMGvd5RVcwjw9zr2ORlNlNRmvxeEmffdmygCEtR4MqifHVF5J7I5KhtX9P1TcY40SB1eycY0RnCALxJZayyOxKh975Sg2ykqgdjiqVe3ATGOuiKbNiV8hkie1jM9_ykPg7bDsj0laJAOXBSkTOlp-P_KZ071NWhr-H2m0_cV7vTKzKy1EROHU_d36WK5CJ1226lZumqb-W5eFzURy9yq61T8lZgANtjpEz9UhRuA1bf6nvSX-w_QJ4yK2u7WlISbkOAUvOmctHnpaBSXSyBGQBB_55cdlZEwIKUHQhOnuS8Ot7PkmQlY1TBIsuo28R_i3oMvrldkDZFiQ9XdpSyf3RDti0OO7qg6yFmbA2wzVFr7jvpYuaXWIrFXQ2rzx_chJU8ENXb0QCkwGIb1Xk8uUrDaCelXddCLvGtOz2UfGHMI9OWsc\" height=\"200\" width=\"auto\" \/><br><br>Région Marrakech-Safi<br>                      جمعية أنامر للتنمية و التضامن أسيف المال     0651401609‎‎                                                                 0637620313‎", "timestamp": null, "begin": null, "end": null, "altitudeMode": null, "tessellate": -1, "extrude": 0, "visibility": -1, "drawOrder": null, "icon": null, "gx_media_links": "https:\/\/lh3.googleusercontent.com\/umsh\/AN6v0v5sNEd0M5wPjNw8bf_dc_lotMUKn9omrpU7X5-whZtb_kp_W2UNd4433oy0mX_VSwuol2GtNrVMCRFJ97ZMNeMq3G09rNX4qI0rAO3Kq3nczLjDNjM7uqBtAV-0GHUphRXdhT-l4EgzYeb5cl-7g4ulMsiztiYcE9wl6gNiOaP21m8eqAPDuX8Hr6FmsolJWro25168CKBywdqKBC8jzLHkndylxFxHxfu1_9C8Js8YXL895fHoPj9Bf53p0WAiqnb9e-vtkZXm4BNASjnA96oSa_Pyd2NfHup21p0qvguAuS11110RnsLEwQnZp7LBhXlluHgt06nOacT-dyFC2nd5T7C31sxa8EtKfE6lcPPWpYcnRklnB77WSI5Wf_r1MmglJsi62gihkS5OAE3VVfpoRE-Y3T0_mmB6jJXU6W1zVIamU2ydkxN6gY9zDIWd_lf3CU_HMtKsEXPoIWDdo1VIygGC4swOhprrKMP433hmxw8FuzxUyZTLOxbVZgzRJGGscBtyQQvvxBWGw-EtYt2kOrJaeshMk7G3XKe_Li7JXC8QV6NJVvt4Z_d0jbD2vpwmkG-H2VYbU_YkrpO_1avTE_Y5XrqEQEk5QkHLoPyxE4vOgeFc9EKypWz6efHLxh4YyiXNnJN_pg4kHkdlHES0fzkt3Voxp7jYcPESfEctCej-C3tBa7shoIr3VGK6RcrIt8VVM6CsVhZ-T2JFSl35poOepi8MztVsLOUPVe9mu-w7nc5GTUg95XbEE_F6Y4QBSdpXIE6qjLENOA-i_WoZCMhVCGhOvPn_5k6eqpRHrQCLHU-qVi4bASVhRwP_DQn2b6mIV9zNgA7ccfw8enXJSJQ2Pa9B2xmybXO4fUeNV8EgiQ1rOVgslauP-lyHyGOvr3ZJ8VPlh9PJ1C4lg0STF0H2T5jSW6DpVDJQvlhruOSyAdHOpFLb9kZ_hQJlVw5zrPMJDElSQb-FcNqbmH_Gthg2lm7lhNjFakBAFuXB-TJJKfRpdMtACWbztlhTcDuZPifRkCv5ZTKy6K0XJ-cmYZaCo47I-Wi-W6oy6FZzC_-t56BO8tuNwpm-3158os89OGzHCN_a7PwzQ-Na8IiSEV2idX-wBijY76BZheMsdHIzmmVx56mymwiFxYxkgrRWqO-VaowTuidLnqkshisXBVKcYCyacgbiwDm_Q78ulVydHb3zyXXzdzzFhEZIAR8pdgCW9ngDxHfDhkdLk-dmUTVGaMe_fHASu_rZA1gk7saEoYDEdb7a0Umkd03jl5LEoyYP_V5srQekpV_IGfnNkgXD_0UaMgYJztiZc12rBJahNMHl1tr68CO4YdT4ZOnnf-Bgs_1ngQ_BlIuU3PWMGvd5RVcwjw9zr2ORlNlNRmvxeEmffdmygCEtR4MqifHVF5J7I5KhtX9P1TcY40SB1eycY0RnCALxJZayyOxKh975Sg2ykqgdjiqVe3ATGOuiKbNiV8hkie1jM9_ykPg7bDsj0laJAOXBSkTOlp-P_KZ071NWhr-H2m0_cV7vTKzKy1EROHU_d36WK5CJ1226lZumqb-W5eFzURy9yq61T8lZgANtjpEz9UhRuA1bf6nvSX-w_QJ4yK2u7WlISbkOAUvOmctHnpaBSXSyBGQBB_55cdlZEwIKUHQhOnuS8Ot7PkmQlY1TBIsuo28R_i3oMvrldkDZFiQ9XdpSyf3RDti0OO7qg6yFmbA2wzVFr7jvpYuaXWIrFXQ2rzx_chJU8ENXb0QCkwGIb1Xk8uUrDaCelXddCLvGtOz2UfGHMI9OWsc" }, "geometry": { "type": "Point", "coordinates": [ -8.478073, 31.308873, 0.0 ] } },
{ "type": "Feature", "properties": { "Name": "مدرسة واريالت‎‎‎", "description": "Région Marrakech-Safi<br>0675521646", "timestamp": null, "begin": null, "end": null, "altitudeMode": null, "tessellate": -1, "extrude": 0, "visibility": -1, "drawOrder": null, "icon": null, "gx_media_links": null }, "geometry": { "type": "Point", "coordinates": [ -8.088491, 31.260112, 0.0 ] } },
{ "type": "Feature", "properties": { "Name": "Taounghast", "description": "Région Marrakech- Safi<br>0662065152<br>0676877090", "timestamp": null, "begin": null, "end": null, "altitudeMode": null, "tessellate": -1, "extrude": 0, "visibility": -1, "drawOrder": null, "icon": null, "gx_media_links": null }, "geometry": { "type": "Point", "coordinates": [ -8.535025, 31.061412, 0.0 ] } },
{ "type": "Feature", "properties": { "Name": "تنغرين‎", "description": "Région Marrakech- Safi <br>0717086765", "timestamp": null, "begin": null, "end": null, "altitudeMode": null, "tessellate": -1, "extrude": 0, "visibility": -1, "drawOrder": null, "icon": null, "gx_media_links": null }, "geometry": { "type": "Point", "coordinates": [ -7.880936, 31.158004, 0.0 ] } },
{ "type": "Feature", "properties": { "Name": "سمغور. Samghorte, Imgdal‎", "description": "Région Marrakech-Safi<br>0653557339<br>0760395516", "timestamp": null, "begin": null, "end": null, "altitudeMode": null, "tessellate": -1, "extrude": 0, "visibility": -1, "drawOrder": null, "icon": null, "gx_media_links": null }, "geometry": { "type": "Point", "coordinates": [ -8.22168, 31.09936, 0.0 ] } },
{ "type": "Feature", "properties": { "Name": "ايت لداود‎", "description": "Région Marrakech-Safi<br>0666857489", "timestamp": null, "begin": null, "end": null, "altitudeMode": null, "tessellate": -1, "extrude": 0, "visibility": -1, "drawOrder": null, "icon": null, "gx_media_links": null }, "geometry": { "type": "Point", "coordinates": [ -8.38076, 31.10349, 0.0 ] } },
{ "type": "Feature", "properties": { "Name": "Tighoula", "description": "Région Marrakech- Safi<br>0671212771 سعيد ايت هماد", "timestamp": null, "begin": null, "end": null, "altitudeMode": null, "tessellate": -1, "extrude": 0, "visibility": -1, "drawOrder": null, "icon": null, "gx_media_links": null }, "geometry": { "type": "Point", "coordinates": [ -8.42711, 31.14047, 0.0 ] } },
{ "type": "Feature", "properties": { "Name": "دوار ويركان‎‎", "description": "Région Marrakech-Safi<br>+212 670-405714<br>066793820‎", "timestamp": null, "begin": null, "end": null, "altitudeMode": null, "tessellate": -1, "extrude": 0, "visibility": -1, "drawOrder": null, "icon": null, "gx_media_links": null }, "geometry": { "type": "Point", "coordinates": [ -8.0802, 31.17463, 0.0 ] } },
{ "type": "Feature", "properties": { "Name": "DOUAR TARGA", "description": "Khalid Issekran - Tknt<br>رقم الهاتف:<br>0672624235<br>0661685295<br>0672680380<br>0662506488<br>‎", "timestamp": null, "begin": null, "end": null, "altitudeMode": null, "tessellate": -1, "extrude": 0, "visibility": -1, "drawOrder": null, "icon": null, "gx_media_links": null }, "geometry": { "type": "Point", "coordinates": [ -8.063026, 31.088621, 0.0 ] } },
{ "type": "Feature", "properties": { "Name": "تمكونسي ‎", "description": "Région Marrakech-Safi 0672891649", "timestamp": null, "begin": null, "end": null, "altitudeMode": null, "tessellate": -1, "extrude": 0, "visibility": -1, "drawOrder": null, "icon": null, "gx_media_links": null }, "geometry": { "type": "Point", "coordinates": [ -7.984605, 31.241274, 0.0 ] } },
{ "type": "Feature", "properties": { "Name": "الزاوية النحلية Zaouiya Nahliya‎‎‎", "description": "Région Marrakech-Safi<br>0603518246", "timestamp": null, "begin": null, "end": null, "altitudeMode": null, "tessellate": -1, "extrude": 0, "visibility": -1, "drawOrder": null, "icon": null, "gx_media_links": null }, "geometry": { "type": "Point", "coordinates": [ -8.601009, 31.222168, 0.0 ] } },
{ "type": "Feature", "properties": { "Name": "Imi N'Isli", "description": "0651156825<br>Région Marrakech-Safi", "timestamp": null, "begin": null, "end": null, "altitudeMode": null, "tessellate": -1, "extrude": 0, "visibility": -1, "drawOrder": null, "icon": null, "gx_media_links": null }, "geometry": { "type": "Point", "coordinates": [ -8.264434, 31.147991, 0.0 ] } },
{ "type": "Feature", "properties": { "Name": "Douar Tachbibt", "description": "+212 662-837296 Belkori<br>Région Marrakech-Safi", "timestamp": null, "begin": null, "end": null, "altitudeMode": null, "tessellate": -1, "extrude": 0, "visibility": -1, "drawOrder": null, "icon": null, "gx_media_links": null }, "geometry": { "type": "Point", "coordinates": [ -8.204192, 31.265739, 0.0 ] } },
{ "type": "Feature", "properties": { "Name": "دوار تنفكيخت‎‎", "description": "Région Marrakech-Safi<br>+212 684-845568", "timestamp": null, "begin": null, "end": null, "altitudeMode": null, "tessellate": -1, "extrude": 0, "visibility": -1, "drawOrder": null, "icon": null, "gx_media_links": null }, "geometry": { "type": "Point", "coordinates": [ -8.382912, 30.994464, 0.0 ] } },
{ "type": "Feature", "properties": { "Name": "Tanamert", "description": "0673088603<br>Al Haouz", "timestamp": null, "begin": null, "end": null, "altitudeMode": null, "tessellate": -1, "extrude": 0, "visibility": -1, "drawOrder": null, "icon": null, "gx_media_links": null }, "geometry": { "type": "Point", "coordinates": [ -8.495041, 31.030689, 0.0 ] } },
{ "type": "Feature", "properties": { "Name": "مجموعة مدارس فلغوس - وحدة مدلاوة‎", "description": "Région Marrakech-Safi<br>جماعة سيدي عبد الله واسعيد <br>0716868901", "timestamp": null, "begin": null, "end": null, "altitudeMode": null, "tessellate": -1, "extrude": 0, "visibility": -1, "drawOrder": null, "icon": null, "gx_media_links": null }, "geometry": { "type": "Point", "coordinates": [ -8.658783, 30.83138, 0.0 ] } },
{ "type": "Feature", "properties": { "Name": "TIZKKA  تيزكا", "description": "Région Marrakesh-Safi<br> +212 615-648798", "timestamp": null, "begin": null, "end": null, "altitudeMode": null, "tessellate": -1, "extrude": 0, "visibility": -1, "drawOrder": null, "icon": null, "gx_media_links": null }, "geometry": { "type": "Point", "coordinates": [ -8.288658, 31.060799, 0.0 ] } },
{ "type": "Feature", "properties": { "Name": "Douar tinilfte دوار تنيلفت‎", "description": "Région Marrakesh-Safi                                                 <br>جماعة تلات نيعقوب <br>0634-075150", "timestamp": null, "begin": null, "end": null, "altitudeMode": null, "tessellate": -1, "extrude": 0, "visibility": -1, "drawOrder": null, "icon": null, "gx_media_links": null }, "geometry": { "type": "Point", "coordinates": [ -9.163426, 30.66946, 0.0 ] } },
{ "type": "Feature", "properties": { "Name": "Toufrine", "description": "Région khenifra-beni mellal<br>0678114947", "timestamp": null, "begin": null, "end": null, "altitudeMode": null, "tessellate": -1, "extrude": 0, "visibility": -1, "drawOrder": null, "icon": null, "gx_media_links": null }, "geometry": { "type": "Point", "coordinates": [ -6.884697, 31.424991, 0.0 ] } },
{ "type": "Feature", "properties": { "Name": "Allousse‏‎", "description": "Région Marrakech-Safi", "timestamp": null, "begin": null, "end": null, "altitudeMode": null, "tessellate": -1, "extrude": 0, "visibility": -1, "drawOrder": null, "icon": null, "gx_media_links": null }, "geometry": { "type": "Point", "coordinates": [ -7.869949, 31.322629, 0.0 ] } },
{ "type": "Feature", "properties": { "Name": "تماروت‎", "description": "Région Marrakech-Safi", "timestamp": null, "begin": null, "end": null, "altitudeMode": null, "tessellate": -1, "extrude": 0, "visibility": -1, "drawOrder": null, "icon": null, "gx_media_links": null }, "geometry": { "type": "Point", "coordinates": [ -8.251099, 30.934395, 0.0 ] } },
{ "type": "Feature", "properties": { "Name": "أنيرني‎", "description": "Région Marrakech-Safi", "timestamp": null, "begin": null, "end": null, "altitudeMode": null, "tessellate": -1, "extrude": 0, "visibility": -1, "drawOrder": null, "icon": null, "gx_media_links": null }, "geometry": { "type": "Point", "coordinates": [ -8.31603, 31.119491, 0.0 ] } },
{ "type": "Feature", "properties": { "Name": "دوار إريق الفوقاني", "description": "Région Marrakesh-Safi", "timestamp": null, "begin": null, "end": null, "altitudeMode": null, "tessellate": -1, "extrude": 0, "visibility": -1, "drawOrder": null, "icon": null, "gx_media_links": null }, "geometry": { "type": "Point", "coordinates": [ -8.691102, 31.250687, 0.0 ] } },
{ "type": "Feature", "properties": { "Name": "Ait Mhand‏", "description": "Région Marrakech-Safi", "timestamp": null, "begin": null, "end": null, "altitudeMode": null, "tessellate": -1, "extrude": 0, "visibility": -1, "drawOrder": null, "icon": null, "gx_media_links": null }, "geometry": { "type": "Point", "coordinates": [ -8.77359, 31.029014, 0.0 ] } },
{ "type": "Feature", "properties": { "Name": "ادازن‎", "description": "Région Marrakesh-Safi", "timestamp": null, "begin": null, "end": null, "altitudeMode": null, "tessellate": -1, "extrude": 0, "visibility": -1, "drawOrder": null, "icon": null, "gx_media_links": null }, "geometry": { "type": "Point", "coordinates": [ -9.349556, 29.481724, 0.0 ] } },
{ "type": "Feature", "properties": { "Name": "Centre Commune Timezgadiouine", "description": "Région Marrakech-Safi", "timestamp": null, "begin": null, "end": null, "altitudeMode": null, "tessellate": -1, "extrude": 0, "visibility": -1, "drawOrder": null, "icon": null, "gx_media_links": null }, "geometry": { "type": "Point", "coordinates": [ -9.04398, 30.885131, 0.0 ] } },
{ "type": "Feature", "properties": { "Name": "تغزراتين‎", "description": "Région Marrakesh-Safi", "timestamp": null, "begin": null, "end": null, "altitudeMode": null, "tessellate": -1, "extrude": 0, "visibility": -1, "drawOrder": null, "icon": null, "gx_media_links": null }, "geometry": { "type": "Point", "coordinates": [ -8.684027, 31.19266, 0.0 ] } },
{ "type": "Feature", "properties": { "Name": "Douar Lakhmiss Ourika", "description": "Région Marrakech-Safi", "timestamp": null, "begin": null, "end": null, "altitudeMode": null, "tessellate": -1, "extrude": 0, "visibility": -1, "drawOrder": null, "icon": null, "gx_media_links": null }, "geometry": { "type": "Point", "coordinates": [ -7.769515, 31.387888, 0.0 ] } },
{ "type": "Feature", "properties": { "Name": "حمام ادويران‎‎", "description": "Région Marrakech-Safi", "timestamp": null, "begin": null, "end": null, "altitudeMode": null, "tessellate": -1, "extrude": 0, "visibility": -1, "drawOrder": null, "icon": null, "gx_media_links": null }, "geometry": { "type": "Point", "coordinates": [ -8.779312, 31.213926, 0.0 ] } },
{ "type": "Feature", "properties": { "Name": "Douar Lakhmiss Ourika‏", "description": "Région Marrakech-Safi", "timestamp": null, "begin": null, "end": null, "altitudeMode": null, "tessellate": -1, "extrude": 0, "visibility": -1, "drawOrder": null, "icon": null, "gx_media_links": null }, "geometry": { "type": "Point", "coordinates": [ -7.769515, 31.387888, 0.0 ] } },
{ "type": "Feature", "properties": { "Name": "Ait Hammou‏", "description": "Région Marrakech-Safi", "timestamp": null, "begin": null, "end": null, "altitudeMode": null, "tessellate": -1, "extrude": 0, "visibility": -1, "drawOrder": null, "icon": null, "gx_media_links": null }, "geometry": { "type": "Point", "coordinates": [ -7.776308, 31.428655, 0.0 ] } },
{ "type": "Feature", "properties": { "Name": "Imintanoute‏", "description": "Région Marrakech-Safi", "timestamp": null, "begin": null, "end": null, "altitudeMode": null, "tessellate": -1, "extrude": 0, "visibility": -1, "drawOrder": null, "icon": null, "gx_media_links": null }, "geometry": { "type": "Point", "coordinates": [ -8.845798, 31.171975, 0.0 ] } },
{ "type": "Feature", "properties": { "Name": "ركتو", "description": "Région Marrakech-Safi", "timestamp": null, "begin": null, "end": null, "altitudeMode": null, "tessellate": -1, "extrude": 0, "visibility": -1, "drawOrder": null, "icon": null, "gx_media_links": null }, "geometry": { "type": "Point", "coordinates": [ -8.659821, 30.931272, 0.0 ] } },
{ "type": "Feature", "properties": { "Name": "Timditante", "description": "Région Marrakech-Safi", "timestamp": null, "begin": null, "end": null, "altitudeMode": null, "tessellate": -1, "extrude": 0, "visibility": -1, "drawOrder": null, "icon": null, "gx_media_links": null }, "geometry": { "type": "Point", "coordinates": [ -7.285182, 31.576453, 0.0 ] } },
{ "type": "Feature", "properties": { "Name": "N'Fiss", "description": "Région Marrakech-Safi", "timestamp": null, "begin": null, "end": null, "altitudeMode": null, "tessellate": -1, "extrude": 0, "visibility": -1, "drawOrder": null, "icon": null, "gx_media_links": null }, "geometry": { "type": "Point", "coordinates": [ -8.198061, 31.574619, 0.0 ] } },
{ "type": "Feature", "properties": { "Name": "Izourane", "description": "Région Marrakech- Safi", "timestamp": null, "begin": null, "end": null, "altitudeMode": null, "tessellate": -1, "extrude": 0, "visibility": -1, "drawOrder": null, "icon": null, "gx_media_links": null }, "geometry": { "type": "Point", "coordinates": [ -9.514686, 31.320905, 0.0 ] } },
{ "type": "Feature", "properties": { "Name": "دوار أكرض‎", "description": "Région Marrakech-Safi", "timestamp": null, "begin": null, "end": null, "altitudeMode": null, "tessellate": -1, "extrude": 0, "visibility": -1, "drawOrder": null, "icon": null, "gx_media_links": null }, "geometry": { "type": "Point", "coordinates": [ -9.442078, 31.22955, 0.0 ] } },
{ "type": "Feature", "properties": { "Name": "Ikisane", "description": "Région Marrakech-Safi", "timestamp": null, "begin": null, "end": null, "altitudeMode": null, "tessellate": -1, "extrude": 0, "visibility": -1, "drawOrder": null, "icon": null, "gx_media_links": null }, "geometry": { "type": "Point", "coordinates": [ -8.5, 30.916667, 0.0 ] } },
{ "type": "Feature", "properties": { "Name": "Imlil toubkal", "description": "Région Marrakech-Safi", "timestamp": null, "begin": null, "end": null, "altitudeMode": null, "tessellate": -1, "extrude": 0, "visibility": -1, "drawOrder": null, "icon": null, "gx_media_links": null }, "geometry": { "type": "Point", "coordinates": [ -7.919794, 31.137745, 0.0 ] } },
{ "type": "Feature", "properties": { "Name": "Ighlmlen", "description": "Région Marrakech-Safi", "timestamp": null, "begin": null, "end": null, "altitudeMode": null, "tessellate": -1, "extrude": 0, "visibility": -1, "drawOrder": null, "icon": null, "gx_media_links": null }, "geometry": { "type": "Point", "coordinates": [ -8.652324, 30.93602, 0.0 ] } },
{ "type": "Feature", "properties": { "Name": "Tasghimoute", "description": "Région Marrakech-Safi", "timestamp": null, "begin": null, "end": null, "altitudeMode": null, "tessellate": -1, "extrude": 0, "visibility": -1, "drawOrder": null, "icon": null, "gx_media_links": null }, "geometry": { "type": "Point", "coordinates": [ -7.59448, 31.565885, 0.0 ] } },
{ "type": "Feature", "properties": { "Name": "Ait Bahmou‏", "description": "Région Marrakech-Safi", "timestamp": null, "begin": null, "end": null, "altitudeMode": null, "tessellate": -1, "extrude": 0, "visibility": -1, "drawOrder": null, "icon": null, "gx_media_links": null }, "geometry": { "type": "Point", "coordinates": [ -9.515903, 31.177118, 0.0 ] } }
]
}
