{
"type": "FeatureCollection",
"name": "villageaide1",
"crs": { "type": "name", "properties": { "name": "urn:ogc:def:crs:OGC:1.3:CRS84" } },
"features": [
{ "type": "Feature", "properties": { "Name": "Ait Tamjote, Jamaa Tamaloukt", "description": "numéro de tel de la femme là-bas: 0642147764", "timestamp": null, "begin": null, "end": null, "altitudeMode": null, "tessellate": -1, "extrude": 0, "visibility": -1, "drawOrder": null, "icon": null, "gx_media_links": null }, "geometry": { "type": "Point", "coordinates": [ -8.8207716, 30.6166425, 0.0 ] } },
{ "type": "Feature", "properties": { "Name": "دوار اورتان، جماعة تلمكانت، قيادة اركانة، اقليم تارودانت‎‎‎", "description": "<img src=\"https:\/\/mymaps.usercontent.google.com\/hostedimage\/m\/*\/3AEDAZkqE8rTT5TufrHSJLBZFnCZZKrjBFG_VdjeZ2kchCDvy--RgZgpvsvA6W0UapYhvf0oJ3Up1EhT7GMWLEMFMBTZJmbrFRdYA00fEJswEkEykA-wQ-vk4Pf901YXvPO4aYVHA86Xtq2Y10wUbcS74774mo-M_KIMDq7pW8TiQbfSyjspi2y6EVaEAP-e18pjyHJ0SZr5RNNrAsjFZIRkXldjh0szn2lODZgzwecPl_dtNqPUG05Mfi3rBHnU?authuser=0&fife=s16383\" height=\"200\" width=\"auto\" \/><br><br>Besoin urgent pour les matelas, les tentes et les couvertures, les gens passent  la nuit en plein air, veuillez contacter Ayoub : +212 652-855697 ", "timestamp": null, "begin": null, "end": null, "altitudeMode": null, "tessellate": -1, "extrude": 0, "visibility": -1, "drawOrder": null, "icon": null, "gx_media_links": "https:\/\/mymaps.usercontent.google.com\/hostedimage\/m\/*\/3AEDAZkqE8rTT5TufrHSJLBZFnCZZKrjBFG_VdjeZ2kchCDvy--RgZgpvsvA6W0UapYhvf0oJ3Up1EhT7GMWLEMFMBTZJmbrFRdYA00fEJswEkEykA-wQ-vk4Pf901YXvPO4aYVHA86Xtq2Y10wUbcS74774mo-M_KIMDq7pW8TiQbfSyjspi2y6EVaEAP-e18pjyHJ0SZr5RNNrAsjFZIRkXldjh0szn2lODZgzwecPl_dtNqPUG05Mfi3rBHnU?authuser=0&fife=s16383" }, "geometry": { "type": "Point", "coordinates": [ -8.889638900756839, 30.9023628234863, 0.0 ] } },
{ "type": "Feature", "properties": { "Name": "دوار تلموضعت‎‎", "description": "Région Souss- Massa <br>0661683057", "timestamp": null, "begin": null, "end": null, "altitudeMode": null, "tessellate": -1, "extrude": 0, "visibility": -1, "drawOrder": null, "icon": null, "gx_media_links": null }, "geometry": { "type": "Point", "coordinates": [ -7.808383, 30.893798, 0.0 ] } },
{ "type": "Feature", "properties": { "Name": "El Bour", "description": "Région Marrakesh-Safi<br>0639198070 Omar Lamkaddem<br>+212626929044 Soufian Président de l'association Amjad Imsker", "timestamp": null, "begin": null, "end": null, "altitudeMode": null, "tessellate": -1, "extrude": 0, "visibility": -1, "drawOrder": null, "icon": null, "gx_media_links": null }, "geometry": { "type": "Point", "coordinates": [ -7.938492, 31.204684, 0.0 ] } },
{ "type": "Feature", "properties": { "Name": "Tarkout تركوت‎", "description": "Région Souss- Massa<br>0661683057", "timestamp": null, "begin": null, "end": null, "altitudeMode": null, "tessellate": -1, "extrude": 0, "visibility": -1, "drawOrder": null, "icon": null, "gx_media_links": null }, "geometry": { "type": "Point", "coordinates": [ -8.618941, 30.85905, 0.0 ] } },
{ "type": "Feature", "properties": { "Name": "Tasdout تسدوت‎", "description": "Région Souss- Massa<br>0661683057", "timestamp": null, "begin": null, "end": null, "altitudeMode": null, "tessellate": -1, "extrude": 0, "visibility": -1, "drawOrder": null, "icon": null, "gx_media_links": null }, "geometry": { "type": "Point", "coordinates": [ -8.809234, 30.658565, 0.0 ] } },
{ "type": "Feature", "properties": { "Name": "Aguerd Oussaka- أكرض أوساكا‎", "description": "Région Souss- Massa<br>0661683057", "timestamp": null, "begin": null, "end": null, "altitudeMode": null, "tessellate": -1, "extrude": 0, "visibility": -1, "drawOrder": null, "icon": null, "gx_media_links": null }, "geometry": { "type": "Point", "coordinates": [ -8.577795, 30.86754, 0.0 ] } },
{ "type": "Feature", "properties": { "Name": "تزلومت \n‎", "description": "Région Souss- Massa<br>0661683057", "timestamp": null, "begin": null, "end": null, "altitudeMode": null, "tessellate": -1, "extrude": 0, "visibility": -1, "drawOrder": null, "icon": null, "gx_media_links": null }, "geometry": { "type": "Point", "coordinates": [ -8.599243, 30.8092, 0.0 ] } },
{ "type": "Feature", "properties": { "Name": "Tizaratine- تيزاراطين‎", "description": "Souss- Massa 0661683057", "timestamp": null, "begin": null, "end": null, "altitudeMode": null, "tessellate": -1, "extrude": 0, "visibility": -1, "drawOrder": null, "icon": null, "gx_media_links": null }, "geometry": { "type": "Point", "coordinates": [ -8.59944, 30.802138, 0.0 ] } },
{ "type": "Feature", "properties": { "Name": "Wizammarn", "description": "Marrakech- Safi <br>Besoin de tentes, vêtements, etc. Contactez Mr. Hossein: 0659761025", "timestamp": null, "begin": null, "end": null, "altitudeMode": null, "tessellate": -1, "extrude": 0, "visibility": -1, "drawOrder": null, "icon": null, "gx_media_links": null }, "geometry": { "type": "Point", "coordinates": [ -8.42761, 30.90048, 0.0 ] } },
{ "type": "Feature", "properties": { "Name": "دوار اورتان‎‎‎‎", "description": "Souss- Massa <br>Besoin urgent pour les matelas, les tentes et les couvertures, les gens passent la nuit en plein air, veuillez contacter Ayoub : +212 652-855697", "timestamp": null, "begin": null, "end": null, "altitudeMode": null, "tessellate": -1, "extrude": 0, "visibility": -1, "drawOrder": null, "icon": null, "gx_media_links": null }, "geometry": { "type": "Point", "coordinates": [ -8.88963, 30.90236, 0.0 ] } },
{ "type": "Feature", "properties": { "Name": "Ait Tamjote, Jamaa Tamaloukt", "description": "Souss- Massa <br>numéro de tel de la femme là-bas: 0642147764", "timestamp": null, "begin": null, "end": null, "altitudeMode": null, "tessellate": -1, "extrude": 0, "visibility": -1, "drawOrder": null, "icon": null, "gx_media_links": null }, "geometry": { "type": "Point", "coordinates": [ -8.82077, 30.61664, 0.0 ] } },
{ "type": "Feature", "properties": { "Name": "بوسنوس ‎", "description": "Région Souss- Massa<br>670144638", "timestamp": null, "begin": null, "end": null, "altitudeMode": null, "tessellate": -1, "extrude": 0, "visibility": -1, "drawOrder": null, "icon": null, "gx_media_links": null }, "geometry": { "type": "Point", "coordinates": [ -8.288422, 30.849138, 0.0 ] } },
{ "type": "Feature", "properties": { "Name": "تخفاخت ‎", "description": "Région Souss- Massa 634801187", "timestamp": null, "begin": null, "end": null, "altitudeMode": null, "tessellate": -1, "extrude": 0, "visibility": -1, "drawOrder": null, "icon": null, "gx_media_links": null }, "geometry": { "type": "Point", "coordinates": [ -8.280922, 30.852862, 0.0 ] } },
{ "type": "Feature", "properties": { "Name": "أدقي ‎", "description": "Région Souss- Massa<br> 0658447352", "timestamp": null, "begin": null, "end": null, "altitudeMode": null, "tessellate": -1, "extrude": 0, "visibility": -1, "drawOrder": null, "icon": null, "gx_media_links": null }, "geometry": { "type": "Point", "coordinates": [ -8.618328, 30.829912, 0.0 ] } },
{ "type": "Feature", "properties": { "Name": "أخفركا ‎", "description": "Région Souss- Massa", "timestamp": null, "begin": null, "end": null, "altitudeMode": null, "tessellate": -1, "extrude": 0, "visibility": -1, "drawOrder": null, "icon": null, "gx_media_links": null }, "geometry": { "type": "Point", "coordinates": [ -8.572984, 30.866088, 0.0 ] } },
{ "type": "Feature", "properties": { "Name": "AL KHOMSS - OULAD BERHIL", "description": "Région Souss- Massa<br>0639333064 Hamid", "timestamp": null, "begin": null, "end": null, "altitudeMode": null, "tessellate": -1, "extrude": 0, "visibility": -1, "drawOrder": null, "icon": null, "gx_media_links": null }, "geometry": { "type": "Point", "coordinates": [ -8.576326, 30.82915, 0.0 ] } },
{ "type": "Feature", "properties": { "Name": "Amguernis", "description": "Région Souss-Massa<br>0639333064 Hamid", "timestamp": null, "begin": null, "end": null, "altitudeMode": null, "tessellate": -1, "extrude": 0, "visibility": -1, "drawOrder": null, "icon": null, "gx_media_links": null }, "geometry": { "type": "Point", "coordinates": [ -8.556308, 30.869978, 0.0 ] } },
{ "type": "Feature", "properties": { "Name": "دوار اكادير الجامع جماعة تيزي نتاست دائرة ولاد برحيل ‎", "description": "Région Souss- Massa 0678‑089705‬ hamid", "timestamp": null, "begin": null, "end": null, "altitudeMode": null, "tessellate": -1, "extrude": 0, "visibility": -1, "drawOrder": null, "icon": null, "gx_media_links": null }, "geometry": { "type": "Point", "coordinates": [ -8.427359, 30.803788, 0.0 ] } },
{ "type": "Feature", "properties": { "Name": "دوار تلامنزو‎ ", "description": "Région Marrakesh-Safi 0656893605 - 0609129316", "timestamp": null, "begin": null, "end": null, "altitudeMode": null, "tessellate": -1, "extrude": 0, "visibility": -1, "drawOrder": null, "icon": null, "gx_media_links": null }, "geometry": { "type": "Point", "coordinates": [ -8.416797, 31.381662, 0.0 ] } },
{ "type": "Feature", "properties": { "Name": "اصقالن - ISSOUQALN  ", "description": "Région Marrakesh-Safi 0656755957 BRAHIM", "timestamp": null, "begin": null, "end": null, "altitudeMode": null, "tessellate": -1, "extrude": 0, "visibility": -1, "drawOrder": null, "icon": null, "gx_media_links": null }, "geometry": { "type": "Point", "coordinates": [ -8.622361, 30.976, 0.0 ] } },
{ "type": "Feature", "properties": { "Name": "بوشنين ", "description": "Région Souss- Massa<br>0706176049", "timestamp": null, "begin": null, "end": null, "altitudeMode": null, "tessellate": -1, "extrude": 0, "visibility": -1, "drawOrder": null, "icon": null, "gx_media_links": null }, "geometry": { "type": "Point", "coordinates": [ -8.714422, 30.7297, 0.0 ] } },
{ "type": "Feature", "properties": { "Name": "أنزال ", "description": "Région Souss- Massa 0655706270 said Ait Mahmed", "timestamp": null, "begin": null, "end": null, "altitudeMode": null, "tessellate": -1, "extrude": 0, "visibility": -1, "drawOrder": null, "icon": null, "gx_media_links": null }, "geometry": { "type": "Point", "coordinates": [ -8.425953, 30.806088, 0.0 ] } },
{ "type": "Feature", "properties": { "Name": "تزواض ‎", "description": "Région Drâa Tafilalet 0676020996 - 0611397276", "timestamp": null, "begin": null, "end": null, "altitudeMode": null, "tessellate": -1, "extrude": 0, "visibility": -1, "drawOrder": null, "icon": null, "gx_media_links": null }, "geometry": { "type": "Point", "coordinates": [ -7.466953, 30.737588, 0.0 ] } },
{ "type": "Feature", "properties": { "Name": "دوار زاوية", "description": "Region : Région Souss-Massa                           Tele : 0607775517", "timestamp": null, "begin": null, "end": null, "altitudeMode": null, "tessellate": -1, "extrude": 0, "visibility": -1, "drawOrder": null, "icon": null, "gx_media_links": null }, "geometry": { "type": "Point", "coordinates": [ -8.508333, 30.552611, 0.0 ] } },
{ "type": "Feature", "properties": { "Name": "Douar asni lakdim", "description": "Région Marrakech-Safi<br>0657-504918 -Aziz bajjou", "timestamp": null, "begin": null, "end": null, "altitudeMode": null, "tessellate": -1, "extrude": 0, "visibility": -1, "drawOrder": null, "icon": null, "gx_media_links": null }, "geometry": { "type": "Point", "coordinates": [ -7.981449, 31.230006, 0.0 ] } },
{ "type": "Feature", "properties": { "Name": "Wizammarn", "description": "Besoin de tentes, vêtements, etc. Contactez Mr. Hossein: 0659761025", "timestamp": null, "begin": null, "end": null, "altitudeMode": null, "tessellate": -1, "extrude": 0, "visibility": -1, "drawOrder": null, "icon": null, "gx_media_links": null }, "geometry": { "type": "Point", "coordinates": [ -8.4276164, 30.9004868, 0.0 ] } },
{ "type": "Feature", "properties": { "Name": "Douar Tadroukhete", "description": "Province Ounayn. Fatima: 0708655376", "timestamp": null, "begin": null, "end": null, "altitudeMode": null, "tessellate": -1, "extrude": 0, "visibility": -1, "drawOrder": null, "icon": null, "gx_media_links": null }, "geometry": { "type": "Point", "coordinates": [ -8.0486111, 31.2712118, 0.0 ] } },
{ "type": "Feature", "properties": { "Name": "Outghal", "description": null, "timestamp": null, "begin": null, "end": null, "altitudeMode": null, "tessellate": -1, "extrude": 0, "visibility": -1, "drawOrder": null, "icon": null, "gx_media_links": null }, "geometry": { "type": "Point", "coordinates": [ -7.9319011, 31.3052699, 0.0 ] } }
]
}
